FMT, 128, 89, FMT, BBnNZ, Type,Length,Name,Format,Columns
FMT, 129, 31, PARM, QNf, TimeUS,Name,Value
FMT, 130, 46, GPS, QBIHBcLLefffB, TimeUS,Status,GMS,GWk,NSats,HDop,Lat,Lng,Alt,Spd,GCrs,VZ,U
FMT, 131, 46, GPS2, QBIHBcLLefffB, TimeUS,Status,GMS,GWk,NSats,HDop,Lat,Lng,Alt,Spd,GCrs,VZ,U
FMT, 196, 24, GPA, QCCCCBI, TimeUS,VDop,HAcc,VAcc,SAcc,VV,SMS
FMT, 197, 24, GPA2, QCCCCBI, TimeUS,VDop,HAcc,VAcc,SAcc,VV,SMS
FMT, 132, 49, IMU, QffffffIIfBB, TimeUS,GyrX,GyrY,GyrZ,AccX,AccY,AccZ,ErrG,ErrA,Temp,GyHlt,AcHlt
FMT, 133, 75, MSG, QZ, TimeUS,Message
FMT, 134, 39, RCIN, QHHHHHHHHHHHHHH, TimeUS,C1,C2,C3,C4,C5,C6,C7,C8,C9,C10,C11,C12,C13,C14
FMT, 135, 39, RCOU, QHHHHHHHHHHHHHH, TimeUS,C1,C2,C3,C4,C5,C6,C7,C8,C9,C10,C11,C12,C13,C14
FMT, 136, 15, RSSI, Qf, TimeUS,RXRSSI
FMT, 138, 33, BARO, QffcfIf, TimeUS,Alt,Press,Temp,CRt,SMS,Offset
FMT, 139, 21, POWR, QffH, TimeUS,Vcc,VServo,Flags
FMT, 146, 45, CMD, QHHHfffffff, TimeUS,CTot,CNum,CId,Prm1,Prm2,Prm3,Prm4,Lat,Lng,Alt
FMT, 147, 20, RAD, QBBBBBHH, TimeUS,RSSI,RemRSSI,TxBuf,Noise,RemNoise,RxErrors,Fixed
FMT, 149, 43, CAM, QIHLLeeeccC, TimeUS,GPSTime,GPSWeek,Lat,Lng,Alt,RelAlt,GPSAlt,Roll,Pitch,Yaw
FMT, 218, 43, TRIG, QIHLLeeeccC, TimeUS,GPSTime,GPSWeek,Lat,Lng,Alt,RelAlt,GPSAlt,Roll,Pitch,Yaw
FMT, 166, 30, ARSP, QffcffB, TimeUS,Airspeed,DiffPress,Temp,RawPress,Offset,U
FMT, 168, 23, CURR, Qfff, TimeUS,Volt,Curr,CurrTot
FMT, 169, 23, CUR2, Qfff, TimeUS,Volt,Curr,CurrTot
FMT, 167, 27, ATT, QccccCCCC, TimeUS,DesRoll,Roll,DesPitch,Pitch,DesYaw,Yaw,ErrRP,ErrYaw
FMT, 170, 34, MAG, QhhhhhhhhhBI, TimeUS,MagX,MagY,MagZ,OfsX,OfsY,OfsZ,MOfsX,MOfsY,MOfsZ,Health,S
FMT, 173, 14, MODE, QMBB, TimeUS,Mode,ModeNum,Rsn
FMT, 198, 15, RFND, QCC, TimeUS,Dist1,Dist2
FMT, 209, 33, DMS, IIIIIBBBBBBBBBB, TimeMS,N,Dp,RT,RS,Er,Fa,Fmn,Fmx,Pa,Pmn,Pmx,Sa,Smn,Smx
FMT, 137, 49, IMU2, QffffffIIfBB, TimeUS,GyrX,GyrY,GyrZ,AccX,AccY,AccZ,ErrG,ErrA,Temp,GyHlt,AcHlt
FMT, 150, 49, IMU3, QffffffIIfBB, TimeUS,GyrX,GyrY,GyrZ,AccX,AccY,AccZ,ErrG,ErrA,Temp,GyHlt,AcHlt
FMT, 140, 29, AHR2, QccCfLL, TimeUS,Roll,Pitch,Yaw,Alt,Lat,Lng
FMT, 184, 27, POS, QLLff, TimeUS,Lat,Lng,Alt,RelAlt
FMT, 141, 29, SIM, QccCfLL, TimeUS,Roll,Pitch,Yaw,Alt,Lat,Lng
FMT, 142, 51, EKF1, QccCfffffffccc, TimeUS,Roll,Pitch,Yaw,VN,VE,VD,dPD,PN,PE,PD,GX,GY,GZ
FMT, 143, 30, EKF2, Qbbbcchhhhhh, TimeUS,Ratio,AZ1bias,AZ2bias,VWN,VWE,MN,ME,MD,MX,MY,MZ
FMT, 144, 31, EKF3, Qcccccchhhc, TimeUS,IVN,IVE,IVD,IPN,IPE,IPD,IMX,IMY,IMZ,IVT
FMT, 145, 34, EKF4, QcccccccbbHBHH, TimeUS,SV,SP,SH,SMX,SMY,SMZ,SVT,OFN,OFE,FS,TS,SS,GPS
FMT, 164, 28, EKF5, QBhhhcccCC, TimeUS,NI,FIX,FIY,AFI,HAGL,offset,RI,rng,Herr
FMT, 200, 51, NKF1, QccCfffffffccc, TimeUS,Roll,Pitch,Yaw,VN,VE,VD,dPD,PN,PE,PD,GX,GY,GZ
FMT, 201, 35, NKF2, QbccccchhhhhhB, TimeUS,AZbias,GSX,GSY,GSZ,VWN,VWE,MN,ME,MD,MX,MY,MZ,MI
FMT, 202, 33, NKF3, Qcccccchhhcc, TimeUS,IVN,IVE,IVD,IPN,IPE,IPD,IMX,IMY,IMZ,IYAW,IVT
FMT, 203, 35, NKF4, QcccccfbbHBHHb, TimeUS,SV,SP,SH,SM,SVT,errRP,OFN,OFE,FS,TS,SS,GPS,PI
FMT, 204, 40, NKF5, QBhhhcccCCfff, TimeUS,NI,FIX,FIY,AFI,HAGL,offset,RI,rng,Herr,eAng,eVel,ePos
FMT, 205, 51, NKF6, QccCfffffffccc, TimeUS,Roll,Pitch,Yaw,VN,VE,VD,dPD,PN,PE,PD,GX,GY,GZ
FMT, 206, 35, NKF7, QbccccchhhhhhB, TimeUS,AZbias,GSX,GSY,GSZ,VWN,VWE,MN,ME,MD,MX,MY,MZ,MI
FMT, 207, 33, NKF8, Qcccccchhhcc, TimeUS,IVN,IVE,IVD,IPN,IPE,IPD,IMX,IMY,IMZ,IYAW,IVT
FMT, 208, 35, NKF9, QcccccfbbHBHHb, TimeUS,SV,SP,SH,SM,SVT,errRP,OFN,OFE,FS,TS,SS,GPS,PI
FMT, 151, 34, TERR, QBLLHffHH, TimeUS,Status,Lat,Lng,Spacing,TerrH,CHeight,Pending,Loaded
FMT, 152, 18, UBX1, QBHBBH, TimeUS,Instance,noisePerMS,jamInd,aPower,agcCnt
FMT, 153, 16, UBX2, QBbBbB, TimeUS,Instance,ofsI,magI,ofsQ,magQ
FMT, 154, 18, UBY1, QBHBBH, TimeUS,Instance,noisePerMS,jamInd,aPower,agcCnt
FMT, 155, 16, UBY2, QBbBbB, TimeUS,Instance,ofsI,magI,ofsQ,magQ
FMT, 174, 42, GRAW, QIHBBddfBbB, TimeUS,WkMS,Week,numSV,sv,cpMes,prMes,doMes,mesQI,cno,lli
FMT, 175, 24, GRXH, QdHbBB, TimeUS,rcvTime,week,leapS,numMeas,recStat
FMT, 176, 41, GRXS, QddfBBBHBBBBB, TimeUS,prMes,cpMes,doMes,gnss,sv,freq,lock,cno,prD,cpD,doD,trk
FMT, 177, 63, SBFE, QIHBBdddfffff, TimeUS,TOW,WN,Mode,Err,Lat,Lng,Height,Undul,Vn,Ve,Vu,COG
FMT, 156, 19, ESC1, Qcccc, TimeUS,RPM,Volt,Curr,Temp
FMT, 157, 19, ESC2, Qcccc, TimeUS,RPM,Volt,Curr,Temp
FMT, 158, 19, ESC3, Qcccc, TimeUS,RPM,Volt,Curr,Temp
FMT, 159, 19, ESC4, Qcccc, TimeUS,RPM,Volt,Curr,Temp
FMT, 160, 19, ESC5, Qcccc, TimeUS,RPM,Volt,Curr,Temp
FMT, 161, 19, ESC6, Qcccc, TimeUS,RPM,Volt,Curr,Temp
FMT, 162, 19, ESC7, Qcccc, TimeUS,RPM,Volt,Curr,Temp
FMT, 163, 19, ESC8, Qcccc, TimeUS,RPM,Volt,Curr,Temp
FMT, 171, 34, MAG2, QhhhhhhhhhBI, TimeUS,MagX,MagY,MagZ,OfsX,OfsY,OfsZ,MOfsX,MOfsY,MOfsZ,Health,S
FMT, 172, 34, MAG3, QhhhhhhhhhBI, TimeUS,MagX,MagY,MagZ,OfsX,OfsY,OfsZ,MOfsX,MOfsY,MOfsZ,Health,S
FMT, 178, 31, ACC1, QQfff, TimeUS,SampleUS,AccX,AccY,AccZ
FMT, 179, 31, ACC2, QQfff, TimeUS,SampleUS,AccX,AccY,AccZ
FMT, 180, 31, ACC3, QQfff, TimeUS,SampleUS,AccX,AccY,AccZ
FMT, 181, 31, GYR1, QQfff, TimeUS,SampleUS,GyrX,GyrY,GyrZ
FMT, 182, 31, GYR2, QQfff, TimeUS,SampleUS,GyrX,GyrY,GyrZ
FMT, 183, 31, GYR3, QQfff, TimeUS,SampleUS,GyrX,GyrY,GyrZ
FMT, 185, 35, PIDR, Qffffff, TimeUS,Des,P,I,D,FF,AFF
FMT, 186, 35, PIDP, Qffffff, TimeUS,Des,P,I,D,FF,AFF
FMT, 187, 35, PIDY, Qffffff, TimeUS,Des,P,I,D,FF,AFF
FMT, 188, 35, PIDA, Qffffff, TimeUS,Des,P,I,D,FF,AFF
FMT, 189, 35, PIDS, Qffffff, TimeUS,Des,P,I,D,FF,AFF
FMT, 165, 33, BAR2, QffcfIf, TimeUS,Alt,Press,Temp,CRt,SMS,Offset
FMT, 199, 33, BAR3, QffcfI, TimeUS,Alt,Press,Temp,CRt,SMS
FMT, 190, 35, VIBE, QfffIII, TimeUS,VibeX,VibeY,VibeZ,Clip0,Clip1,Clip2
FMT, 191, 47, IMT, Qfffffffff, TimeUS,DelT,DelvT,DelaT,DelAX,DelAY,DelAZ,DelVX,DelVY,DelVZ
FMT, 192, 47, IMT2, Qfffffffff, TimeUS,DelT,DelvT,DelaT,DelAX,DelAY,DelAZ,DelVX,DelVY,DelVZ
FMT, 193, 47, IMT3, Qfffffffff, TimeUS,DelT,DelvT,DelaT,DelAX,DelAY,DelAZ,DelVX,DelVY,DelVZ
FMT, 194, 24, ORGN, QBLLe, TimeUS,Type,Lat,Lng,Alt
FMT, 195, 19, RPM, Qff, TimeUS,rpm1,rpm2
FMT, 219, 47, GMB1, Iffffffffff, TimeMS,dt,dax,day,daz,dvx,dvy,dvz,jx,jy,jz
FMT, 220, 44, GMB2, IBfffffffff, TimeMS,es,ex,ey,ez,rx,ry,rz,tx,ty,tz
FMT, 221, 13, GMB3, Ihhh, TimeMS,rl_torque_cmd,el_torque_cmd,az_torque_cmd
FMT, 222, 59, RATE, Qffffffffffff, TimeUS,RDes,R,ROut,PDes,P,POut,YDes,Y,YOut,ADes,A,AOut
FMT, 223, 23, RALY, QBBLLh, TimeUS,Tot,Seq,Lat,Lng,Alt
FMT, 210, 23, SBPH, QIII, TimeUS,CrcError,LastInject,IARhyp
FMT, 215, 80, SBR1, QHHBZ, TimeUS,msg_type,sender_id,msg_len,d1
FMT, 216, 205, SBR2, QHZZZ, TimeUS,msg_type,d2,d3,d4
FMT, 25, 41, ATUN, QBBfffffff, TimeUS,Axis,TuneStep,Targ,Min,Max,RP,RD,SP,ddt
FMT, 26, 19, ATDE, Qff, TimeUS,Angle,Rate
FMT, 31, 22, PTUN, QBfHHH, TimeUS,Param,TunVal,CtrlIn,TunLo,TunHi
FMT, 12, 28, OF, QBffff, TimeUS,Qual,flowX,flowY,bodyX,bodyY
FMT, 5, 51, NTUN, Qffffffffff, TimeUS,DPosX,DPosY,PosX,PosY,DVelX,DVelY,VelX,VelY,DAccX,DAccY
FMT, 4, 51, CTUN, Qffffffeccfhh, TimeUS,ThI,ABst,ThO,ThH,DAlt,Alt,BAlt,DSAlt,SAlt,TAlt,DCRt,CRt
FMT, 6, 28, PM, QHHIhBHI, TimeUS,NLon,NLoop,MaxT,PMT,I2CErr,INSErr,LogDrop
FMT, 30, 27, MOTB, Qffff, TimeUS,LiftMax,BatVolt,BatRes,ThLimit
FMT, 13, 12, EV, QB, TimeUS,Id
FMT, 20, 14, D16, QBh, TimeUS,Id,Value
FMT, 21, 14, DU16, QBH, TimeUS,Id,Value
FMT, 22, 16, D32, QBi, TimeUS,Id,Value
FMT, 23, 16, DU32, QBI, TimeUS,Id,Value
FMT, 24, 16, DFLT, QBf, TimeUS,Id,Value
FMT, 19, 13, ERR, QBB, TimeUS,Subsys,ECode
FMT, 32, 19, HELI, Qff, TimeUS,DRRPM,ERRPM
FMT, 33, 29, PL, QBBffff, TimeUS,Heal,TAcq,pX,pY,vX,vY
FMT, 34, 36, GUID, QBffffff, TimeUS,Type,pX,pY,pZ,vX,vY,vZ
FMT, 35, 32, THRO, QBffffbbbb, TimeUS,Stage,Vel,VelZ,Acc,AccEfZ,Throw,AttOk,HgtOk,PosOk
FMT, 36, 44, PRX, QBffffffff, TimeUS,Health,D0,D45,D90,D135,D180,D225,D270,D315
EV, 243469926, 10
MODE, 243469935, Stabilize, 0, 1
DU32, 243471883, 7, 16836056
FMT, 254, 31, CTRL, Qfffff, TimeUS,RMSRollP,RMSRollD,RMSPitchP,RMSPitchD,RMSYaw
GPS, 243574154, 1, 0, 0, 0, 99.99, 0, 0, -17.00, 0, 0, 0, 1
GPA, 243574154, 99.99, 393.28, 61.12, 344.64, 1, 243574
CURR, 243574228, 24.76956, 1.2062, 45.85334
POWR, 243574238, 5.148193, 0.033, 1
MAG, 243574270, -37, -209, -48, -58, 13, 6, 0, 0, 0, 1, 243574262
MAG2, 243574270, -46, -221, -53, 45, -268, 203, 0, 0, 0, 1, 243574264
MSG, 243638786, APM:Copter V3.4.6 (e707341b)
MSG, 243638801, PX4: de6b667d NuttX: 8c965992
MSG, 243638845, PX4v2 001E0035 35345107 34343430
MSG, 243638860, New mission
CMD, 243638878, 6, 0, 16, 0, 0, 0, 0, 0, 0, 0
CMD, 243638897, 6, 1, 22, 3, 0, 0, 0, 0, 0, 20
CMD, 243638916, 6, 2, 16, 3, 0, 0, 0, -12.28102, -76.89142, 20
CMD, 243638936, 6, 3, 16, 3, 0, 0, 0, -12.28074, -76.8912, 20
CMD, 243638955, 6, 4, 16, 3, 0, 0, 0, -12.28062, -76.89145, 20
CMD, 243638979, 6, 5, 20, 0, 0, 0, 0, 0, 0, 0
MSG, 243638992, Frame: QUAD
MODE, 243639005, Stabilize, 0, 1
IMU, 243644877, 0.0001500309, 0.005076761, 0.003287054, 0.1386494, 0.05889892, -9.737752, 0, 0, 35.44321, 1, 1
IMU2, 243644877, -0.005223076, -0.01122698, -0.003822634, 0.1910364, -0.05577452, -9.806191, 0, 0, 38, 1, 1
PL, 243644903, 1, 0, 0, 0, 0, 0
CURR, 243683143, 24.76532, 1.160272, 45.88845
POWR, 243683153, 5.135303, 0.033, 1
MAG, 243683185, -40, -208, -49, -58, 13, 6, 0, 0, 0, 1, 243683177
MAG2, 243683185, -46, -220, -55, 45, -268, 203, 0, 0, 0, 1, 243683179
BARO, 243684988, -0.07108452, 100327.4, 37.79, -4.726937, 243684, 0
CTUN, 243685010, 0, 0, 0, 0.2993129, 0, 1.01014, -0.07, 0.00, 0.18, 0, 0, 26
ATT, 243685168, -1.09, -1.09, 0.12, 0.12, 103.26, 103.26, 0.00, 0.00
NKF1, 243685178, -1.09, 0.12, 103.26, 0.05513568, -0.09870365, -0.2662222, 0, 0, 0, -1.01014, -0.02, 0.18, 0.11
NKF2, 243685178, 9, 0.00, 0.00, 0.00, 0.00, 0.00, 221, 0, -51, 0, 0, 0, 0
NKF3, 243685178, 0.00, 0.00, 0.00, 0.03, -0.06, 1.56, 0, 0, 0, 1.86, 0.00
NKF4, 243685178, 0.00, 0.00, 0.10, 0.02, 0.00, 9.239261E-05, 0, 0, 0, 19, 485, 256, 0
NKF5, 243685178, 0, 0, 0, 0, 0.20, 0.10, 0.09, 0.09, 0.15, 0.0006157422, 0.01552487, 0.8750521
NKF6, 243685178, -0.90, -1.16, 99.76, 0.06992021, 0.3435559, -0.03854107, 0, 0, 0, -0.6892987, -0.19, -0.38, -0.08
NKF7, 243685178, 9, 0.00, 0.00, 0.00, 0.00, 0.00, 220, 0, -57, 0, 0, 0, 0
NKF8, 243685178, 0.00, 0.00, 0.00, 0.05, 0.24, 1.58, 0, 0, 0, -1.35, 0.00
NKF9, 243685178, 0.00, 0.00, 0.10, 0.01, 0.00, 0.0002926092, 0, 0, 0, 19, 485, 256, 0
AHR2, 243685383, -1.03, -0.32, 100.88, -0.07, 0, 0
RATE, 243685400, -0.01038806, -0.01038806, -5.409676E-06, 0.1126264, 0.1126264, 2.590459E-05, 0.02556896, 0.02556896, 1.222168E-05, 0, 2.888775, 0
MOTB, 243685420, 1, 1, 0, 1
RCIN, 243685430, 1514, 1518, 1094, 1934, 968, 1094, 1094, 1094, 1514, 1514, 1514, 1514, 1514, 1514
RCOU, 243685546, 1094, 1094, 1094, 1094, 0, 0, 0, 0, 1900, 1100, 0, 0, 0, 0
VIBE, 243685566, 0.03624406, 0.03434553, 0.04918187, 0, 0, 0
CTRL, 243685585, 4.058288E-05, 0.0001670819, 4.439014E-05, 0.000183123, 1.522075E-05
IMU, 243685613, -0.0006463937, 0.005279806, 0.00244739, 0.1533892, 0.05404161, -9.738195, 0, 0, 35.53186, 1, 1
IMU2, 243685613, -0.008637715, -0.01417715, -0.002425028, 0.138853, -0.02587222, -9.76274, 0, 0, 37.875, 1, 1
PL, 243685644, 1, 0, 0, 0, 0, 0
IMU, 243725235, -0.001010449, 0.003839104, 0.004172117, 0.1349858, 0.09758999, -9.752241, 0, 0, 35.53186, 1, 1
IMU2, 243725235, -0.01118132, -0.004491017, 0.0004651788, 0.1524022, 0.02295052, -9.792092, 0, 0, 37.875, 1, 1
PL, 243725260, 1, 0, 0, 0, 0, 0
IMU, 243765199, -0.0006142836, 0.004630532, 0.00322026, 0.1564794, 0.05300423, -9.756144, 0, 0, 35.44321, 1, 1
IMU2, 243765199, -0.002358032, -0.00549911, -0.002161738, 0.0860488, -0.004787596, -9.663286, 0, 0, 37.875, 1, 1
PL, 243765224, 1, 0, 0, 0, 0, 0
GPS, 243783474, 1, 0, 0, 0, 99.99, 0, 0, -17.00, 0, 0, 0, 1
GPA, 243783474, 99.99, 393.28, 74.56, 344.64, 1, 243783
CURR, 243783504, 24.71604, 1.266631, 45.92376
POWR, 243783514, 5.153027, 0.036, 1
MAG, 243783559, -37, -208, -49, -58, 13, 6, 0, 0, 0, 1, 243783551
MAG2, 243783559, -47, -221, -53, 45, -268, 203, 0, 0, 0, 1, 243783553
BARO, 243785108, 0.00820206, 100326.5, 37.79, -4.442056, 243784, 0
CTUN, 243785129, 0, 0, 0, 0.2993129, 0, 0.6767415, 0.00, 0.00, 0.18, 0, 0, 27
ATT, 243785186, -1.09, -1.09, 0.12, 0.12, 103.27, 103.27, 0.00, 0.00
NKF1, 243785195, -1.09, 0.12, 103.27, 0.05671104, -0.1026641, -0.2710257, 0, 0, 0, -0.6767415, -0.02, 0.19, 0.11
NKF2, 243785195, 9, 0.00, 0.00, 0.00, 0.00, 0.00, 221, 0, -51, 0, 0, 0, 0
NKF3, 243785195, 0.00, 0.00, 0.00, 0.04, -0.08, -0.23, 0, 0, 0, 2.40, 0.00
NKF4, 243785195, 0.00, 0.00, 0.01, 0.02, 0.00, 6.032848E-05, 0, 0, 0, 19, 485, 256, 0
NKF5, 243785195, 0, 0, 0, 0, 0.22, 0.10, 0.09, 0.09, 0.15, 0.0005280486, 0.01458629, 0.5180249
NKF6, 243785195, -0.91, -1.17, 99.76, 0.07246898, 0.3479848, -0.04076067, 0, 0, 0, -0.4448365, -0.19, -0.38, -0.08
NKF7, 243785195, 9, 0.00, 0.00, 0.00, 0.00, 0.00, 220, 0, -57, 0, 0, 0, 0
NKF8, 243785195, 0.00, 0.00, 0.00, 0.06, 0.27, -0.20, 0, 0, 0, -0.79, 0.00
NKF9, 243785195, 0.00, 0.00, 0.01, 0.00, 0.00, 0.0001942192, 0, 0, 0, 19, 485, 256, 0
AHR2, 243785410, -1.03, -0.32, 100.89, 0, 0, 0
RATE, 243785427, -0.03981143, -0.03981143, -0.0004790188, 0.1356533, 0.1356533, -2.208794E-05, -0.0002421382, -0.0002421382, 2.490913E-05, 0, 5.52721, 0
MOTB, 243785451, 1, 1, 0, 1
RCIN, 243785461, 1514, 1518, 1094, 1934, 968, 1094, 1094, 1094, 1514, 1514, 1514, 1514, 1514, 1514
RCOU, 243785531, 1094, 1094, 1094, 1094, 0, 0, 0, 0, 1900, 1100, 0, 0, 0, 0
VIBE, 243785551, 0.04157224, 0.03321208, 0.04855214, 0, 0, 0
CTRL, 243785569, 3.904411E-05, 0.0001632871, 4.303009E-05, 0.0001722674, 1.516586E-05
IMU, 243804988, -0.001069428, 0.005206623, 0.002463358, 0.1778483, 0.0568514, -9.772195, 0, 0, 35.53186, 1, 1
IMU2, 243804988, -0.007956106, -0.01526366, -0.002232242, 0.1469548, 0.009872149, -9.722569, 0, 0, 38, 1, 1
PL, 243805071, 1, 0, 0, 0, 0, 0
IMU, 243845187, -0.00106706, 0.004231481, 0.003604363, 0.1598962, 0.0892215, -9.778469, 0, 0, 35.44321, 1, 1
IMU2, 243845187, -0.005680936, -0.008969049, -0.005480127, 0.1907939, 0.01183956, -9.717819, 0, 0, 38, 1, 1
PL, 243845217, 1, 0, 0, 0, 0, 0
CURR, 243883211, 24.75302, 1.222637, 45.95763
POWR, 243883221, 5.154639, 0.031, 1
MAG, 243883253, -39, -207, -49, -58, 13, 6, 0, 0, 0, 1, 243883245
MAG2, 243883253, -46, -221, -55, 45, -268, 203, 0, 0, 0, 1, 243883248
BARO, 243885116, -0.06014844, 100327.3, 37.79, -2.122851, 243885, 0
CTUN, 243885137, 0, 0, 0, 0.2993129, 0, 0.4587908, -0.06, 0.00, 0.18, 0, 0, 27
ATT, 243885223, -1.09, -1.09, 0.13, 0.13, 103.27, 103.27, 0.00, 0.00
NKF1, 243885233, -1.09, 0.13, 103.27, 0.05870881, -0.1060433, -0.2746691, 0, 0, 0, -0.4587908, -0.02, 0.19, 0.11
NKF2, 243885233, 9, 0.00, 0.00, 0.00, 0.00, 0.00, 221, 0, -51, 0, 0, 0, 0
NKF3, 243885233, 0.00, 0.00, 0.00, 0.05, -0.09, -0.21, 0, 0, 0, 1.99, 0.00
NKF4, 243885233, 0.00, 0.00, 0.01, 0.02, 0.00, 3.85035E-05, 0, 0, 0, 19, 485, 256, 0
NKF5, 243885233, 0, 0, 0, 0, 0.23, 0.09, 0.12, 0.09, 0.15, 0.0006006138, 0.01534205, 0.2703447
NKF6, 243885233, -0.92, -1.18, 99.76, 0.07510082, 0.3638144, -0.04203146, 0, 0, 0, -0.2784879, -0.19, -0.38, -0.08
NKF7, 243885233, 9, 0.00, 0.00, 0.00, 0.00, 0.00, 220, 0, -57, 0, 0, 0, 0
NKF8, 243885233, 0.00, 0.00, 0.00, 0.07, 0.34, -0.12, 0, 0, 0, -1.20, 0.00
NKF9, 243885233, 0.00, 0.00, 0.00, 0.01, 0.00, 0.0001254227, 0, 0, 0, 19, 485, 256, 0
AHR2, 243885417, -1.03, -0.32, 100.89, -0.06, 0, 0
RATE, 243885434, 0.0556, 0.0556, 9.897496E-06, 0.02985142, 0.02985142, -0.0002634545, 0.03571215, 0.03571215, 7.9704E-06, 0, 3.332424, 0
MOTB, 243885454, 1, 1, 0, 1
RCIN, 243885465, 1514, 1518, 1094, 1816, 968, 1094, 1094, 1094, 1514, 1514, 1514, 1514, 1514, 1514
RCOU, 243885534, 1094, 1094, 1094, 1094, 0, 0, 0, 0, 1900, 1100, 0, 0, 0, 0
VIBE, 243885597, 0.03430435, 0.03883471, 0.05054693, 0, 0, 0
CTRL, 243885615, 3.50789E-05, 0.0001439118, 4.143929E-05, 0.0001666543, 1.368601E-05
IMU, 243885685, 0.0005005903, 0.003868854, 0.002646636, 0.1596322, 0.06170729, -9.741491, 0, 0, 35.44321, 1, 1
IMU2, 243885685, -0.006420528, -0.01305112, 0.0004547606, 0.2387829, -0.08079881, -9.753449, 0, 0, 38, 1, 1
PL, 243885711, 1, 0, 0, 0, 0, 0
IMU, 243924938, -0.0006805041, 0.005393741, 0.003188003, 0.1470667, 0.03749475, -9.771202, 0, 0, 35.44321, 1, 1
IMU2, 243924938, -0.0008984513, -0.004905819, 0.0001548011, 0.2373049, -0.03548473, -9.677822, 0, 0, 37.875, 1, 1
PL, 243924963, 1, 0, 0, 0, 0, 0
IMU, 243965219, -0.001647219, 0.005457939, 0.001858885, 0.1584523, 0.07360694, -9.75324, 0, 0, 35.53186, 1, 1
IMU2, 243965219, -0.004282156, -0.01062427, -0.0003590549, 0.1916696, -0.06624364, -9.728274, 0, 0, 37.875, 1, 1
PL, 243965275, 1, 0, 0, 0, 0, 0
GPS, 243983511, 1, 0, 0, 0, 99.99, 0, 0, -17.00, 0, 0, 0, 1
GPA, 243983511, 99.99, 393.28, 87.36, 344.64, 1, 243983
CURR, 243983542, 24.76432, 1.1361, 45.9893
POWR, 243983552, 5.141748, 0.033, 1
MAG, 243983584, -41, -208, -47, -58, 13, 6, 0, 0, 0, 1, 243983576
MAG2, 243983584, -46, -222, -52, 45, -268, 203, 0, 0, 0, 1, 243983578
BARO, 243984979, -0.09842473, 100327.7, 37.80, -0.2129509, 243984, 0
CTUN, 243985001, 0, 0, 0, 0.2993129, 0, 0.3202662, -0.09, 0.00, 0.18, 0, 0, 27
ATT, 243985159, -1.09, -1.09, 0.14, 0.14, 103.27, 103.27, 0.00, 0.00
NKF1, 243985169, -1.09, 0.14, 103.27, 0.06224366, -0.1114168, -0.2794156, 0, 0, 0, -0.3202663, -0.02, 0.19, 0.11
NKF2, 243985169, 9, 0.00, 0.00, 0.00, 0.00, 0.00, 221, 0, -51, 0, 0, 0, 0
NKF3, 243985169, 0.00, 0.00, 0.00, 0.06, -0.10, -0.15, 0, 0, 0, 2.83, 0.00
NKF4, 243985169, 0.00, 0.00, 0.01, 0.03, 0.00, 2.60436E-05, 0, 0, 0, 19, 485, 256, 0
NKF5, 243985169, 0, 0, 0, 0, 0.25, 0.09, 0.12, 0.09, 0.15, 0.0006350479, 0.01601368, 0.1041729
NKF6, 243985169, -0.91, -1.19, 99.76, 0.08109752, 0.382549, -0.04083432, 0, 0, 0, -0.1660673, -0.19, -0.38, -0.08
NKF7, 243985169, 9, 0.00, 0.00, 0.00, 0.00, 0.00, 220, 0, -57, 0, 0, 0, 0
NKF8, 243985169, 0.00, 0.00, 0.00, 0.08, 0.38, -0.04, 0, 0, 0, -0.36, 0.00
NKF9, 243985169, 0.00, 0.00, 0.00, 0.00, 0.00, 8.465866E-05, 0, 0, 0, 19, 485, 256, 0
AHR2, 243985397, -1.03, -0.31, 100.90, -0.09, 0, 0
RATE, 243985413, -0.05023925, -0.05023925, -0.0003083773, 0.1108562, 0.1108562, -0.0001356983, 0.08269643, 0.08269643, -1.064802E-05, 0, 5.652618, 0
MOTB, 243985434, 1, 1, 0, 1
RCIN, 243985546, 1514, 1518, 1094, 1540, 968, 1094, 1094, 1094, 1514, 1514, 1514, 1514, 1514, 1514
RCOU, 243985615, 1094, 1094, 1094, 1094, 0, 0, 0, 0, 1900, 1100, 0, 0, 0, 0
VIBE, 243985635, 0.0438532, 0.04053987, 0.05628179, 0, 0, 0
CTRL, 243985654, 3.755349E-05, 0.0001559229, 4.55753E-05, 0.0001846951, 1.328778E-05
IMU, 244005103, -0.0005139586, 0.004539921, 0.003355838, 0.1692833, 0.08784515, -9.74852, 0, 0, 35.44321, 1, 1
IMU2, 244005103, -0.003954169, -0.0137545, -0.002463759, 0.158627, -0.01418437, -9.700876, 0, 0, 37.875, 1, 1
PL, 244005133, 1, 0, 0, 0, 0, 0
IMU, 244044972, 0.0001544632, 0.004175498, 0.002824494, 0.1553318, 0.05881547, -9.746325, 0, 0, 35.53186, 1, 1
IMU2, 244044972, -0.003479057, -0.007860253, 0.0004103097, 0.2232075, -0.02495511, -9.739426, 0, 0, 38.125, 1, 1
PL, 244044997, 1, 0, 0, 0, 0, 0
CURR, 244083129, 24.78527, 1.177999, 46.02188
POWR, 244083139, 5.154639, 0.033, 1
MAG, 244083171, -40, -208, -49, -58, 13, 6, 0, 0, 0, 1, 244083163
MAG2, 244083171, -46, -221, -53, 45, -268, 203, 0, 0, 0, 1, 244083165
BARO, 244085107, 0.0273402, 100326.3, 37.80, 0.08230118, 244085, 0
CTUN, 244085128, 0, 0, 0, 0.2993129, 0, 0.2361535, 0.02, 0.00, 0.18, 0, 0, 28
ATT, 244085184, -1.09, -1.09, 0.14, 0.14, 103.27, 103.27, 0.00, 0.00
NKF1, 244085194, -1.09, 0.14, 103.27, 0.06552462, -0.1169815, -0.2832924, 0, 0, 0, -0.2361535, -0.02, 0.19, 0.11
NKF2, 244085194, 9, 0.00, 0.00, 0.00, 0.00, 0.00, 221, 0, -51, 0, 0, 0, 0
NKF3, 244085194, 0.00, 0.00, 0.00, 0.06, -0.12, -0.24, 0, 0, 0, 2.18, 0.00
NKF4, 244085194, 0.00, 0.00, 0.01, 0.02, 0.00, 1.777118E-05, 0, 0, 0, 19, 485, 256, 0
NKF5, 244085194, 0, 0, 0, 0, 0.26, 0.08, 0.17, 0.09, 0.15, 0.0006380362, 0.0159693, 0.02593275
NKF6, 244085194, -0.91, -1.21, 99.77, 0.08403832, 0.4008418, -0.04391503, 0, 0, 0, -0.09130034, -0.19, -0.38, -0.08
NKF7, 244085194, 9, 0.00, 0.00, 0.00, 0.00, 0.00, 220, 0, -57, 0, 0, 0, 0
NKF8, 244085194, 0.00, 0.00, 0.00, 0.09, 0.41, -0.12, 0, 0, 0, -1.00, 0.00
NKF9, 244085194, 0.00, 0.00, 0.00, 0.01, 0.00, 5.827083E-05, 0, 0, 0, 19, 485, 256, 0
AHR2, 244085339, -1.02, -0.31, 100.91, 0.02, 0, 0
RATE, 244085356, -0.02755018, -0.02755018, 0.000233654, 0.1445702, 0.1445702, 0.0003078934, 0.06023849, 0.06023849, 1.695163E-06, 0, 4.51231, 0
MOTB, 244085447, 1, 1, 0, 1
RCIN, 244085458, 1514, 1518, 1094, 1514, 968, 1094, 1094, 1094, 1514, 1514, 1514, 1514, 1514, 1514
RCOU, 244085527, 1094, 1094, 1094, 1094, 0, 0, 0, 0, 1900, 1100, 0, 0, 0, 0
VIBE, 244085547, 0.03991419, 0.03804006, 0.06664617, 0, 0, 0
CTRL, 244085566, 3.96965E-05, 0.0001649573, 4.475007E-05, 0.000179013, 1.303696E-05
IMU, 244085595, -0.0009538802, 0.005894111, 0.003089913, 0.1397646, 0.07019867, -9.753037, 0, 0, 35.44321, 1, 1
IMU2, 244085595, -0.005858884, -0.01129187, -0.001836727, 0.2018659, -0.00024408, -9.717689, 0, 0, 38, 1, 1
PL, 244085620, 1, 0, 0, 0, 0, 0
IMU, 244125084, -0.0005040551, 0.004675044, 0.002277547, 0.1576689, 0.08637021, -9.745667, 0, 0, 35.53186, 1, 1
IMU2, 244125084, -0.003204931, -0.01279572, -0.003919388, 0.1303046, -0.005035473, -9.800163, 0, 0, 38, 1, 1
PL, 244125109, 1, 0, 0, 0, 0, 0
IMU, 244165348, -0.002098989, 0.003889731, 0.003273365, 0.1496432, 0.06381703, -9.751697, 0, 0, 35.44321, 1, 1
IMU2, 244165348, -0.002346189, -0.01083027, 0.001439277, 0.1975654, 0.0460914, -9.77143, 0, 0, 37.875, 1, 1
PL, 244165373, 1, 0, 0, 0, 0, 0
GPS, 244183482, 1, 0, 0, 0, 99.99, 0, 0, -17.00, 0, 0, 0, 1
GPA, 244183482, 99.99, 393.28, 100.48, 344.64, 1, 244183
CURR, 244183513, 24.78664, 1.176226, 46.05469
POWR, 244183523, 5.148193, 0.033, 1
MAG, 244183604, -40, -209, -49, -58, 13, 6, 0, 0, 0, 1, 244183547
MAG2, 244183604, -46, -221, -52, 45, -268, 203, 0, 0, 0, 1, 244183549
BARO, 244185112, -0.1202969, 100328, 37.80, -0.04726953, 244185, 0
CTUN, 244185138, 0, 0, 0, 0.2993129, 0, 0.1881722, -0.12, 0.00, 0.18, 0, 0, 28
ATT, 244185194, -1.10, -1.10, 0.15, 0.15, 103.26, 103.26, 0.00, 0.00
NKF1, 244185204, -1.10, 0.15, 103.26, 0.0685131, -0.1234384, -0.286435, 0, 0, 0, -0.1881722, -0.02, 0.19, 0.11
NKF2, 244185204, 9, 0.00, 0.00, 0.00, 0.00, 0.00, 221, 0, -51, 0, 0, 0, 0
NKF3, 244185204, 0.00, 0.00, 0.00, 0.07, -0.13, -0.30, 0, 0, 0, 1.72, 0.00
NKF4, 244185204, 0.00, 0.00, 0.02, 0.02, 0.00, 1.231027E-05, 0, 0, 0, 19, 485, 256, 0
NKF5, 244185204, 0, 0, 0, 0, 0.28, 0.08, 0.17, 0.09, 0.15, 0.0006128795, 0.01559065, 0.08018097
NKF6, 244185204, -0.92, -1.24, 99.77, 0.0869377, 0.419275, -0.04353129, 0, 0, 0, -0.04156494, -0.19, -0.38, -0.08
NKF7, 244185204, 9, 0.00, 0.00, 0.00, 0.00, 0.00, 220, 0, -57, 0, 0, 0, 0
NKF8, 244185204, 0.00, 0.00, 0.00, 0.09, 0.45, -0.15, 0, 0, 0, -1.47, 0.00
NKF9, 244185204, 0.00, 0.00, 0.01, 0.01, 0.00, 4.02992E-05, 0, 0, 0, 19, 485, 256, 0
AHR2, 244185389, -1.02, -0.32, 100.92, -0.12, 0, 0
RATE, 244185406, -0.02760167, -0.02760167, 0.000283636, 0.03920677, 0.03920677, 2.732496E-05, 0.04136545, 0.04136545, 6.677347E-06, 0, 4.746246, 0
MOTB, 244185426, 1, 1, 0, 1
RCIN, 244185436, 1514, 1518, 1094, 1514, 968, 1094, 1094, 1094, 1514, 1514, 1514, 1514, 1514, 1514
RCOU, 244185540, 1094, 1094, 1094, 1094, 0, 0, 0, 0, 1900, 1100, 0, 0, 0, 0
VIBE, 244185560, 0.03413019, 0.03727881, 0.05506007, 0, 0, 0
CTRL, 244185579, 3.944036E-05, 0.0001605234, 4.091534E-05, 0.0001649596, 1.251149E-05
IMU, 244204960, -0.001097918, 0.004137759, 0.002450627, 0.135338, 0.09628056, -9.759737, 0, 0, 35.53186, 1, 1
IMU2, 244204960, -0.002783581, -0.01538247, -0.002023296, 0.1772137, -0.02919471, -9.67515, 0, 0, 38, 1, 1
PL, 244204985, 1, 0, 0, 0, 0, 0
IMU, 244244932, 0.000150929, 0.005444006, 0.003320513, 0.1697876, 0.06495818, -9.749083, 0, 0, 35.53186, 1, 1
IMU2, 244244932, -0.00766356, -0.01681452, -0.008823741, 0.2308908, -0.02535709, -9.738994, 0, 0, 37.875, 1, 1
PL, 244244958, 1, 0, 0, 0, 0, 0
CURR, 244283395, 24.76159, 1.195725, 46.08787
POWR, 244283522, 5.148193, 0.033, 1
MAG, 244283554, -40, -208, -51, -58, 13, 6, 0, 0, 0, 1, 244283546
MAG2, 244283554, -46, -221, -53, 45, -268, 203, 0, 0, 0, 1, 244283548
BARO, 244284986, 0, 100326.6, 37.80, -0.001308197, 244284, 0
CTUN, 244285065, 0, 0, 0, 0.2993129, 0, 0.1645922, 0.00, 0.00, 0.18, 0, 0, 29
ATT, 244285122, -1.10, -1.10, 0.16, 0.16, 103.27, 103.27, 0.00, 0.00
NKF1, 244285174, -1.10, 0.16, 103.27, 0.0719694, -0.129171, -0.2903533, 0, 0, 0, -0.1645922, -0.02, 0.19, 0.11
NKF2, 244285174, 9, 0.00, 0.00, 0.00, 0.00, 0.00, 221, 0, -51, 0, 0, 0, 0
NKF3, 244285174, 0.00, 0.00, 0.00, 0.07, -0.14, -0.19, 0, 0, 0, 1.94, 0.00
NKF4, 244285174, 0.00, 0.00, 0.01, 0.02, 0.00, 8.720387E-06, 0, 0, 0, 19, 485, 256, 0
NKF5, 244285174, 0, 0, 0, 0, 0.29, 0.07, 0.20, 0.09, 0.15, 0.0005915198, 0.01543229, 0.1265537
NKF6, 244285174, -0.93, -1.27, 99.76, 0.09291537, 0.4413107, -0.04339775, 0, 0, 0, -0.008508146, -0.19, -0.39, -0.08
NKF7, 244285174, 9, 0.00, 0.00, 0.00, 0.00, 0.00, 220, 0, -57, 0, 0, 0, 0
NKF8, 244285174, 0.00, 0.00, 0.00, 0.10, 0.49, -0.03, 0, 0, 0, -1.23, 0.00
NKF9, 244285174, 0.00, 0.00, 0.00, 0.01, 0.00, 2.882968E-05, 0, 0, 0, 19, 485, 256, 0
AHR2, 244285313, -1.02, -0.32, 100.93, 0, 0, 0
RATE, 244285329, -0.04021747, -0.04021747, 5.2467E-05, 0.09609158, 0.09609158, -0.0001326147, 0.1235641, 0.1235641, -2.269753E-05, 0, 5.501652, 0
MOTB, 244285349, 1, 1, 0, 1
RCIN, 244285360, 1514, 1518, 1094, 1514, 968, 1094, 1094, 1094, 1514, 1514, 1514, 1514, 1514, 1514
RCOU, 244285429, 1094, 1094, 1094, 1094, 0, 0, 0, 0, 1900, 1100, 0, 0, 0, 0
VIBE, 244285449, 0.04639428, 0.04020758, 0.05823684, 0, 0, 0
CTRL, 244285468, 3.89746E-05, 0.0001602595, 4.201504E-05, 0.0001736051, 1.212871E-05
IMU, 244285497, -0.001176256, 0.005057219, 0.004201668, 0.1712625, 0.07115267, -9.761989, 0, 0, 35.53186, 1, 1
IMU2, 244285497, -0.00565545, -0.01009808, 0.000506636, 0.1714935, -0.09815229, -9.71072, 0, 0, 38, 1, 1
PL, 244285522, 1, 0, 0, 0, 0, 0
IMU, 244325022, -0.0006535987, 0.004329969, 0.002581357, 0.1623859, 0.09087075, -9.776143, 0, 0, 35.44321, 1, 1
IMU2, 244325022, -0.00602273, -0.01008244, -0.0002451499, 0.2608847, 0.006593642, -9.680132, 0, 0, 38, 1, 1
PL, 244325129, 1, 0, 0, 0, 0, 0
IMU, 244365119, -0.001416516, 0.005104604, 0.003896278, 0.1572993, 0.03413546, -9.75806, 0, 0, 35.44321, 1, 1
IMU2, 244365119, -0.004876501, -0.01237665, -0.005465732, 0.1894094, -0.0465699, -9.61253, 0, 0, 38, 1, 1
PL, 244365145, 1, 0, 0, 0, 0, 0
GPS, 244383274, 1, 0, 0, 0, 99.99, 0, 0, -17.00, 0, 0, 0, 1
GPA, 244383274, 99.99, 393.28, 113.28, 344.64, 1, 244383
CURR, 244383336, 24.75157, 1.22312, 46.12183
POWR, 244383346, 5.127246, 0.033, 1
MAG, 244383387, -42, -208, -49, -58, 13, 6, 0, 0, 0, 1, 244383379
MAG2, 244383387, -47, -221, -51, 45, -268, 203, 0, 0, 0, 1, 244383381
BARO, 244385182, -0.273402, 100329.7, 37.81, -0.04648608, 244385, 0
CTUN, 244385204, 0, 0, 0, 0.2993129, 0, 0.1584933, -0.27, 0.00, 0.18, 0, 0, 29
ATT, 244385259, -1.10, -1.10, 0.17, 0.17, 103.26, 103.26, 0.00, 0.00
NKF1, 244385269, -1.10, 0.17, 103.26, 0.07521741, -0.1354191, -0.2948762, 0, 0, 0, -0.1584933, -0.02, 0.19, 0.11
NKF2, 244385269, 9, 0.00, 0.00, 0.00, 0.00, 0.00, 221, 0, -51, 0, 0, 0, 0
NKF3, 244385269, 0.00, 0.00, 0.00, 0.08, -0.15, -0.36, 0, 0, 0, 1.93, 0.00
NKF4, 244385269, 0.00, 0.00, 0.02, 0.02, 0.00, 6.451514E-06, 0, 0, 0, 19, 485, 256, 0
NKF5, 244385269, 0, 0, 0, 0, 0.31, 0.07, 0.20, 0.09, 0.15, 0.0005635829, 0.01468165, 0.1499439
NKF6, 244385269, -0.94, -1.29, 99.76, 0.09665392, 0.4661036, -0.03920781, 0, 0, 0, 0.01167333, -0.19, -0.39, -0.08
NKF7, 244385269, 9, 0.00, 0.00, 0.00, 0.00, 0.00, 220, 0, -57, 0, 0, 0, 0
NKF8, 244385269, 0.00, 0.00, 0.00, 0.11, 0.53, -0.18, 0, 0, 0, -1.23, 0.00
NKF9, 244385269, 0.00, 0.00, 0.01, 0.01, 0.00, 2.102992E-05, 0, 0, 0, 19, 485, 256, 0
AHR2, 244385483, -1.02, -0.32, 100.93, -0.27, 0, 0
RATE, 244385500, -0.004410079, -0.004410079, 7.113022E-05, 0.08898633, 0.08898633, 6.672399E-05, 0.1247701, 0.1247701, -2.178632E-05, 0, 4.74577, 0
MOTB, 244385520, 1, 1, 0, 1
RCIN, 244385531, 1514, 1518, 1094, 1514, 968, 1094, 1094, 1094, 1514, 1514, 1514, 1514, 1514, 1514
RCOU, 244385600, 1094, 1094, 1094, 1094, 0, 0, 0, 0, 1900, 1100, 0, 0, 0, 0
VIBE, 244385620, 0.04342885, 0.04070469, 0.05244238, 0, 0, 0
CTRL, 244385638, 4.201497E-05, 0.0001755755, 4.012296E-05, 0.0001656076, 1.456739E-05
IMU, 244404907, -0.001224366, 0.005359346, 0.003055591, 0.1621304, 0.05770945, -9.762321, 0, 0, 35.6205, 1, 1
IMU2, 244404907, -0.002108699, -0.006866449, -0.002239456, 0.1779941, -0.06569679, -9.679743, 0, 0, 38, 1, 1
PL, 244404932, 1, 0, 0, 0, 0, 0
IMU, 244444976, -0.0005106167, 0.003956898, 0.003017095, 0.1582, 0.06164271, -9.753432, 0, 0, 35.53186, 1, 1
IMU2, 244444976, -0.001537535, -0.009639051, 0.0004144143, 0.2094351, -0.02369923, -9.636209, 0, 0, 38, 1, 1
PL, 244445002, 1, 0, 0, 0, 0, 0
CURR, 244483222, 24.7604, 1.260346, 46.15678
POWR, 244483232, 5.141748, 0.036, 1
MAG, 244483264, -38, -208, -49, -58, 13, 6, 0, 0, 0, 1, 244483256
MAG2, 244483264, -47, -221, -53, 45, -268, 203, 0, 0, 0, 1, 244483258
BARO, 244485185, -0.09842473, 100327.7, 37.81, -0.2730712, 244485, 0
CTUN, 244485206, 0, 0, 0, 0.2993129, 0, 0.1629402, -0.09, 0.00, 0.18, 0, 0, 29
DU32, 244485237, 7, 16836056
ATT, 244485352, -1.10, -1.10, 0.17, 0.17, 103.27, 103.27, 0.00, 0.00
NKF1, 244485362, -1.10, 0.17, 103.27, 0.079114, -0.1420697, -0.2977399, 0, 0, 0, -0.1629402, -0.02, 0.19, 0.11
NKF2, 244485362, 9, 0.00, 0.00, 0.00, 0.00, 0.00, 221, 0, -51, 0, 0, 0, 0
NKF3, 244485362, 0.00, 0.00, 0.00, 0.09, -0.17, -0.26, 0, 0, 0, 2.03, 0.00
NKF4, 244485362, 0.00, 0.00, 0.01, 0.02, 0.00, 5.021726E-06, 0, 0, 0, 19, 485, 256, 0
NKF5, 244485362, 0, 0, 0, 0, 0.33, 0.07, 0.20, 0.09, 0.15, 0.0005431669, 0.01422141, 0.1666719
NKF6, 244485362, -0.94, -1.29, 99.77, 0.1043969, 0.4874701, -0.03616281, 0, 0, 0, 0.0253594, -0.19, -0.39, -0.08
NKF7, 244485362, 9, 0.00, 0.00, 0.00, 0.00, 0.00, 220, 0, -57, 0, 0, 0, 0
NKF8, 244485362, 0.00, 0.00, 0.00, 0.12, 0.58, -0.05, 0, 0, 0, -1.10, 0.00
NKF9, 244485362, 0.00, 0.00, 0.00, 0.01, 0.00, 1.630921E-05, 0, 0, 0, 19, 485, 256, 0
AHR2, 244485504, -1.01, -0.31, 100.95, -0.09, 0, 0
RATE, 244485521, -0.08613328, -0.08613328, -1.732385E-05, 0.05293219, 0.05293219, -0.0002837226, 0.09450386, 0.09450386, -1.191922E-05, 0, 2.236462, 0
MOTB, 244485541, 1, 1, 0, 1
RCIN, 244485552, 1514, 1518, 1094, 1514, 968, 1094, 1094, 1094, 1514, 1514, 1514, 1514, 1514, 1514
RCOU, 244485627, 1094, 1094, 1094, 1094, 0, 0, 0, 0, 1900, 1100, 0, 0, 0, 0
VIBE, 244485647, 0.04944244, 0.04666828, 0.05193022, 0, 0, 0
CTRL, 244485665, 4.175264E-05, 0.0001725585, 4.482036E-05, 0.0001879942, 1.257748E-05
IMU, 244485694, -0.001980038, 0.004321076, 0.003705854, 0.1503286, 0.08499496, -9.729237, 0, 0, 35.53186, 1, 1
IMU2, 244485694, -0.003421073, -0.001082068, 0.002393746, 0.1586618, -0.01575992, -9.768118, 0, 0, 38.125, 1, 1
PL, 244485720, 1, 0, 0, 0, 0, 0
IMU, 244525002, 0.0003266927, 0.004908432, 0.00343716, 0.159034, 0.07447285, -9.747876, 0, 0, 35.53186, 1, 1
IMU2, 244525002, -0.0001105628, -0.01139768, -0.0008096935, 0.2148545, -0.1012061, -9.712105, 0, 0, 37.875, 1, 1
PL, 244525174, 1, 0, 0, 0, 0, 0
RAD, 244554947, 216, 218, 100, 73, 71, 0, 0
RAD, 244558102, 216, 218, 100, 73, 71, 0, 0
IMU, 244564959, -0.0006536816, 0.004226909, 0.002867309, 0.1710721, 0.02379847, -9.735527, 0, 0, 35.44321, 1, 1
IMU2, 244564959, -0.004046092, -0.01223113, -0.001866417, 0.1776299, -0.0449725, -9.747624, 0, 0, 37.875, 1, 1
PL, 244564984, 1, 0, 0, 0, 0, 0
GPS, 244583618, 1, 0, 0, 0, 99.99, 0, 0, -17.00, 0, 0, 0, 1
GPA, 244583618, 99.99, 393.28, 126.40, 344.64, 1, 244583
CURR, 244583649, 24.75977, 1.177999, 46.18966
POWR, 244583658, 5.141748, 0.036, 1
MAG, 244583690, -39, -209, -49, -58, 13, 6, 0, 0, 0, 1, 244583683
MAG2, 244583690, -47, -221, -51, 45, -268, 203, 0, 0, 0, 1, 244583685
BARO, 244585110, -0.06014844, 100327.3, 37.81, -0.3844914, 244585, 0
CTUN, 244585131, 0, 0, 0, 0.2993129, 0, 0.174599, -0.06, 0.00, 0.18, 0, 0, 30
ATT, 244585217, -1.10, -1.10, 0.18, 0.18, 103.27, 103.27, 0.00, 0.00
NKF1, 244585255, -1.10, 0.18, 103.27, 0.08354551, -0.148239, -0.3011169, 0, 0, 0, -0.174599, -0.02, 0.19, 0.11
NKF2, 244585255, 9, 0.00, 0.00, 0.00, 0.00, 0.00, 221, 0, -51, 0, 0, 0, 0
NKF3, 244585255, 0.00, 0.00, 0.00, 0.10, -0.18, -0.55, 0, 0, 0, 1.53, 0.00
NKF4, 244585255, 0.00, 0.00, 0.03, 0.01, 0.00, 4.204731E-06, 0, 0, 0, 19, 485, 256, 0
NKF5, 244585255, 0, 0, 0, 0, 0.33, 0.06, 0.23, 0.09, 0.15, 0.0005045523, 0.01317477, 0.1653213
NKF6, 244585255, -0.93, -1.31, 99.77, 0.1118991, 0.513355, -0.03314668, 0, 0, 0, 0.03345239, -0.19, -0.39, -0.08
NKF7, 244585255, 9, 0.00, 0.00, 0.00, 0.00, 0.00, 220, 0, -57, 0, 0, 0, 0
NKF8, 244585255, 0.00, 0.00, 0.00, 0.13, 0.63, -0.33, 0, 0, 0, -1.61, 0.00
NKF9, 244585255, 0.00, 0.00, 0.02, 0.01, 0.00, 1.340201E-05, 0, 0, 0, 19, 485, 256, 0
AHR2, 244585487, -1.01, -0.31, 100.95, -0.06, 0, 0
RATE, 244585504, -0.1080027, -0.1080027, -5.24479E-05, 0.05603583, 0.05603583, 3.244387E-05, 0.08978134, 0.08978134, -8.385156E-06, 0, 7.078648, 0
MOTB, 244585524, 1, 1, 0, 1
RCIN, 244585534, 1514, 1518, 1094, 1514, 968, 1094, 1094, 1094, 1514, 1514, 1514, 1514, 1514, 1514
RCOU, 244585653, 1094, 1094, 1094, 1094, 0, 0, 0, 0, 1900, 1100, 0, 0, 0, 0
VIBE, 244585673, 0.0485758, 0.04535535, 0.05490528, 0, 0, 0
CTRL, 244585692, 4.521001E-05, 0.0001753694, 4.593982E-05, 0.0001950127, 1.114282E-05
IMU, 244605109, -0.001890395, 0.004634302, 0.002438658, 0.1505677, 0.08150761, -9.759089, 0, 0, 35.44321, 1, 1
IMU2, 244605109, -0.003523442, -0.01238573, -0.004820022, 0.2004686, 0.01564355, -9.714708, 0, 0, 38, 1, 1
PL, 244605135, 1, 0, 0, 0, 0, 0
IMU, 244645092, -8.289953E-05, 0.00418099, 0.002765329, 0.1355036, 0.07979996, -9.756481, 0, 0, 35.44321, 1, 1
IMU2, 244645092, -0.003864389, -0.01158994, -0.0006977103, 0.1956172, -0.01940877, -9.674561, 0, 0, 38.125, 1, 1
PL, 244645118, 1, 0, 0, 0, 0, 0
CURR, 244683338, 24.74155, 1.22312, 46.22354
POWR, 244683348, 5.133691, 0.033, 1
MAG, 244683416, -37, -208, -50, -58, 13, 6, 0, 0, 0, 1, 244683408
MAG2, 244683416, -47, -221, -53, 45, -268, 203, 0, 0, 0, 1, 244683411
BARO, 244684998, -0.09842473, 100327.7, 37.81, -0.1172051, 244684, 0
CTUN, 244685114, 0, 0, 0, 0.2993129, 0, 0.1888445, -0.09, 0.00, 0.18, 0, 0, 30
ATT, 244685170, -1.10, -1.10, 0.19, 0.19, 103.27, 103.27, 0.00, 0.00
NKF1, 244685180, -1.10, 0.19, 103.27, 0.08755744, -0.155722, -0.3031562, 0, 0, 0, -0.1888445, -0.02, 0.19, 0.11
NKF2, 244685180, 9, 0.00, 0.00, 0.00, 0.00, 0.00, 221, 0, -51, 0, 0, 0, 0
NKF3, 244685180, 0.00, 0.00, 0.00, 0.10, -0.19, -0.38, 0, 0, 0, 2.60, 0.00
NKF4, 244685180, 0.00, 0.00, 0.02, 0.03, 0.00, 3.793918E-06, 0, 0, 0, 19, 485, 256, 0
NKF5, 244685180, 0, 0, 0, 0, 0.34, 0.06, 0.23, 0.09, 0.15, 0.0005200885, 0.01259242, 0.1675042
NKF6, 244685180, -0.95, -1.35, 99.76, 0.115523, 0.5380681, -0.03389482, 0, 0, 0, 0.04032165, -0.19, -0.39, -0.08
NKF7, 244685180, 9, 0.00, 0.00, 0.00, 0.00, 0.00, 220, 0, -57, 0, 0, 0, 0
NKF8, 244685180, 0.00, 0.00, 0.00, 0.14, 0.68, -0.15, 0, 0, 0, -0.54, 0.00
NKF9, 244685180, 0.00, 0.00, 0.00, 0.00, 0.00, 1.190178E-05, 0, 0, 0, 19, 485, 256, 0
AHR2, 244685362, -1.01, -0.32, 100.95, -0.09, 0, 0
RATE, 244685379, -0.06395224, -0.06395224, -0.0001421982, 0.121732, 0.121732, 6.393669E-05, 0.1183876, 0.1183876, -2.181967E-05, 0, 2.99139, 0
MOTB, 244685398, 1, 1, 0, 1
RCIN, 244685409, 1514, 1518, 1094, 1514, 968, 1094, 1094, 1094, 1514, 1514, 1514, 1514, 1514, 1514
RCOU, 244685520, 1094, 1094, 1094, 1094, 0, 0, 0, 0, 1900, 1100, 0, 0, 0, 0
VIBE, 244685540, 0.04260162, 0.04355418, 0.04973449, 0, 0, 0
CTRL, 244685558, 4.63924E-05, 0.0001831682, 4.149539E-05, 0.0001735736, 1.135276E-05
IMU, 244685587, -0.001593027, 0.00552274, 0.004124296, 0.1653756, 0.05052366, -9.736801, 0, 0, 35.53186, 1, 1
IMU2, 244685587, -0.00969176, -0.01148614, -0.001652643, 0.1998517, -0.02085253, -9.785537, 0, 0, 38.125, 1, 1
PL, 244685613, 1, 0, 0, 0, 0, 0
IMU, 244724932, -0.0008482801, 0.004258757, 0.002034499, 0.1719983, 0.07595036, -9.768289, 0, 0, 35.44321, 1, 1
IMU2, 244724932, -0.005279456, -0.009389018, -0.003041177, 0.2565748, -0.02202618, -9.689064, 0, 0, 37.875, 1, 1
PL, 244724957, 1, 0, 0, 0, 0, 0
IMU, 244764876, -0.000361742, 0.004102212, 0.003139288, 0.137687, 0.08154466, -9.756641, 0, 0, 35.6205, 1, 1
IMU2, 244764876, -0.004822756, -0.01123908, -0.00275323, 0.221532, -0.05355823, -9.70027, 0, 0, 38, 1, 1
PL, 244764901, 1, 0, 0, 0, 0, 0
GPS, 244783466, 1, 0, 0, 0, 99.99, 0, 0, -17.00, 0, 0, 0, 1
GPA, 244783466, 99.99, 393.28, 139.52, 344.64, 1, 244783
CURR, 244783497, 24.75221, 1.170425, 46.2561
POWR, 244783507, 5.148193, 0.033, 1
MAG, 244783539, -41, -208, -49, -58, 13, 6, 0, 0, 0, 1, 244783531
MAG2, 244783539, -46, -222, -51, 45, -268, 203, 0, 0, 0, 1, 244783533
BARO, 244785101, -0.1257649, 100328, 37.81, 0.208469, 244785, 0
CTUN, 244785122, 0, 0, 0, 0.2993129, 0, 0.2064167, -0.12, 0.00, 0.18, 0, 0, 30
ATT, 244785178, -1.10, -1.10, 0.20, 0.20, 103.27, 103.27, 0.00, 0.00
NKF1, 244785188, -1.10, 0.20, 103.27, 0.09132612, -0.1630947, -0.3066637, 0, 0, 0, -0.2064167, -0.02, 0.19, 0.11
NKF2, 244785188, 9, 0.00, 0.00, 0.00, 0.00, 0.00, 221, 0, -51, 0, 0, 0, 0
NKF3, 244785188, 0.00, 0.00, 0.00, 0.11, -0.21, -0.36, 0, 0, 0, 2.25, 0.00
NKF4, 244785188, 0.00, 0.00, 0.02, 0.02, 0.00, 3.678846E-06, 0, 0, 0, 19, 485, 256, 0
NKF5, 244785188, 0, 0, 0, 0, 0.34, 0.05, 0.26, 0.09, 0.15, 0.0005232078, 0.01203141, 0.1672186
NKF6, 244785188, -0.97, -1.36, 99.76, 0.120266, 0.5658472, -0.03168882, 0, 0, 0, 0.04430488, -0.19, -0.39, -0.08
NKF7, 244785188, 9, 0.00, 0.00, 0.00, 0.00, 0.00, 220, 0, -57, 0, 0, 0, 0
NKF8, 244785188, 0.00, 0.00, 0.00, 0.15, 0.73, -0.11, 0, 0, 0, -0.89, 0.00
NKF9, 244785188, 0.00, 0.01, 0.00, 0.01, 0.00, 1.135705E-05, 0, 0, 0, 19, 485, 256, 0
AHR2, 244785326, -1.01, -0.31, 100.95, -0.12, 0, 0
RATE, 244785397, 0.007579962, 0.007579962, 8.610003E-05, 0.08616596, 0.08616596, -0.0002665128, 0.067409, 0.067409, -5.782242E-06, 0, 7.409668, 0
MOTB, 244785417, 1, 1, 0, 1
RCIN, 244785427, 1514, 1518, 1094, 1514, 968, 1094, 1094, 1094, 1514, 1514, 1514, 1514, 1514, 1514
RCOU, 244785497, 1094, 1094, 1094, 1094, 0, 0, 0, 0, 1900, 1100, 0, 0, 0, 0
VIBE, 244785560, 0.04226455, 0.03905044, 0.05483348, 0, 0, 0
CTRL, 244785579, 4.273897E-05, 0.0001709261, 4.179819E-05, 0.0001712308, 1.403774E-05
IMU, 244805071, -0.001474281, 0.005543903, 0.003728356, 0.1398537, 0.05809544, -9.752659, 0, 0, 35.57618, 1, 1
IMU2, 244805071, -0.008510232, -0.00903489, -0.0007232226, 0.2192359, -0.03652564, -9.661111, 0, 0, 38.125, 1, 1
PL, 244805097, 1, 0, 0, 0, 0, 0
IMU, 244844960, -0.0006975242, 0.005605131, 0.002148366, 0.1640331, 0.06522093, -9.730907, 0, 0, 35.44321, 1, 1
IMU2, 244844960, -0.001823259, -0.004854744, -0.0007560959, 0.1881236, -0.008218233, -9.675392, 0, 0, 37.875, 1, 1
PL, 244844985, 1, 0, 0, 0, 0, 0
CURR, 244883799, 24.76796, 1.128042, 46.28753
POWR, 244883809, 5.148193, 0.033, 1
MAG, 244883841, -40, -207, -49, -58, 13, 6, 0, 0, 0, 1, 244883833
MAG2, 244883841, -46, -221, -53, 45, -268, 203, 0, 0, 0, 1, 244883836
BARO, 244885091, -0.1695092, 100328.5, 37.82, 0.1316628, 244885, 0
CTUN, 244885112, 0, 0, 0, 0.2993129, 0, 0.226329, -0.16, 0.00, 0.18, 0, 0, 30
ATT, 244885168, -1.11, -1.11, 0.20, 0.20, 103.26, 103.26, 0.00, 0.00
NKF1, 244885178, -1.11, 0.20, 103.26, 0.09576346, -0.1705179, -0.3086857, 0, 0, 0, -0.226329, -0.02, 0.19, 0.11
NKF2, 244885178, 9, 0.00, 0.00, 0.00, 0.00, 0.00, 221, 0, -51, 0, 0, 0, 0
NKF3, 244885178, 0.00, 0.00, 0.00, 0.12, -0.22, -0.42, 0, 0, 0, 2.67, 0.00
NKF4, 244885178, 0.00, 0.00, 0.02, 0.03, 0.00, 3.783331E-06, 0, 0, 0, 19, 485, 256, 0
NKF5, 244885178, 0, 0, 0, 0, 0.36, 0.05, 0.26, 0.09, 0.15, 0.0005521346, 0.01140392, 0.1626753
NKF6, 244885178, -0.97, -1.35, 99.77, 0.1247126, 0.5917506, -0.0313758, 0, 0, 0, 0.04618133, -0.19, -0.39, -0.08
NKF7, 244885178, 9, 0.00, 0.00, 0.00, 0.00, 0.00, 220, 0, -57, 0, 0, 0, 0
NKF8, 244885178, 0.00, 0.00, 0.00, 0.16, 0.78, -0.14, 0, 0, 0, -0.45, 0.00
NKF9, 244885178, 0.00, 0.01, 0.00, 0.00, 0.00, 1.152594E-05, 0, 0, 0, 19, 485, 256, 0
AHR2, 244885407, -1.01, -0.30, 100.97, -0.16, 0, 0
RATE, 244885423, -0.03071234, -0.03071234, 3.884364E-05, 0.06115196, 0.06115196, 0.000309406, 0.04400412, 0.04400412, 9.683242E-07, 0, 4.206944, 0
MOTB, 244885492, 1, 1, 0, 1
RCIN, 244885502, 1514, 1518, 1094, 1514, 968, 1094, 1094, 1094, 1514, 1514, 1514, 1514, 1514, 1514
RCOU, 244885571, 1094, 1094, 1094, 1094, 0, 0, 0, 0, 1900, 1100, 0, 0, 0, 0
VIBE, 244885592, 0.03759633, 0.03832535, 0.04945908, 0, 0, 0
CTRL, 244885615, 4.029343E-05, 0.0001630067, 4.080022E-05, 0.0001696455, 1.375458E-05
IMU, 244885643, -0.001013639, 0.004470834, 0.002830596, 0.1534093, 0.06312251, -9.749035, 0, 0, 35.48753, 1, 1
IMU2, 244885643, -0.0007693534, -0.001533652, 0.003577119, 0.2236826, 0.007876847, -9.744923, 0, 0, 38, 1, 1
PL, 244885710, 1, 0, 0, 0, 0, 0
IMU, 244924907, -0.0009719922, 0.004408204, 0.004334642, 0.1547097, 0.08696505, -9.750525, 0, 0, 35.53186, 1, 1
IMU2, 244924907, -0.005696152, -0.01224195, -0.004424614, 0.2250448, -0.07698809, -9.794987, 0, 0, 38, 1, 1
PL, 244924933, 1, 0, 0, 0, 0, 0
IMU, 244964910, -0.0009445052, 0.005073351, 0.003062892, 0.1448662, 0.03356524, -9.761229, 0, 0, 35.48753, 1, 1
IMU2, 244964910, -0.004903034, -0.009814292, 0.0009418866, 0.1892735, -0.06735712, -9.661535, 0, 0, 38.125, 1, 1
PL, 244964935, 1, 0, 0, 0, 0, 0
GPS, 244983346, 1, 0, 0, 0, 99.99, 0, 0, -17.00, 0, 0, 0, 1
GPA, 244983346, 99.99, 393.28, 152.64, 344.64, 1, 244983
CURR, 244983376, 24.79984, 1.157049, 46.31954
POWR, 244983386, 5.15625, 0.031, 1
MAG, 244983586, -42, -207, -48, -58, 13, 6, 0, 0, 0, 1, 244983578
MAG2, 244983586, -46, -222, -52, 45, -268, 203, 0, 0, 0, 1, 244983580
BARO, 244985361, -0.09842473, 100327.7, 37.82, -0.136701, 244985, 0
CTUN, 244985382, 0, 0, 0, 0.2993129, 0, 0.2470851, -0.09, 0.00, 0.18, 0, 0, 31
ATT, 244985443, -1.11, -1.11, 0.21, 0.21, 103.27, 103.27, 0.00, 0.00
NKF1, 244985453, -1.11, 0.21, 103.27, 0.1003392, -0.1774574, -0.3113638, 0, 0, 0, -0.2470851, -0.02, 0.19, 0.11
NKF2, 244985453, 9, 0.00, 0.00, 0.00, 0.00, 0.00, 221, 0, -51, 0, 0, 0, 0
NKF3, 244985453, 0.00, 0.00, 0.00, 0.13, -0.24, -0.46, 0, 0, 0, 1.81, 0.00
NKF4, 244985453, 0.00, 0.00, 0.03, 0.02, 0.00, 4.054691E-06, 0, 0, 0, 19, 485, 256, 0
NKF5, 244985453, 0, 0, 0, 0, 0.36, 0.03, 0.27, 0.09, 0.15, 0.0005435129, 0.01077436, 0.1558298
NKF6, 244985453, -0.98, -1.38, 99.77, 0.1331946, 0.6189873, -0.03293084, 0, 0, 0, 0.04698204, -0.19, -0.39, -0.08
NKF7, 244985453, 9, 0.00, 0.00, 0.00, 0.00, 0.00, 220, 0, -57, 0, 0, 0, 0
NKF8, 244985453, 0.00, 0.00, 0.00, 0.18, 0.83, -0.17, 0, 0, 0, -1.31, 0.00
NKF9, 244985453, 0.00, 0.01, 0.01, 0.01, 0.00, 1.224724E-05, 0, 0, 0, 19, 485, 256, 0
AHR2, 244985694, -1.01, -0.30, 100.97, -0.09, 0, 0
RATE, 244985711, -0.06774148, -0.06774148, 2.456389E-06, 0.06840312, 0.06840312, 0.0002675646, 0.07350048, 0.07350048, -8.040941E-08, 0, 4.664707, 0
MOTB, 244985731, 1, 1, 0, 1
RCIN, 244985742, 1514, 1518, 1094, 1514, 968, 1094, 1094, 1094, 1514, 1514, 1514, 1514, 1514, 1514
RCOU, 244985871, 1094, 1094, 1094, 1094, 0, 0, 0, 0, 1900, 1100, 0, 0, 0, 0
VIBE, 244985891, 0.03975826, 0.03942842, 0.04778257, 0, 0, 0
CTRL, 244985910, 4.063065E-05, 0.0001654433, 3.961356E-05, 0.0001624752, 1.4884E-05
IMU, 245004932, -0.001444549, 0.004260365, 0.003600715, 0.1670288, 0.07961572, -9.749867, 0, 0, 35.57618, 1, 1
IMU2, 245004932, -0.003126975, -0.006265751, 0.000633909, 0.09503205, -0.1240766, -9.699312, 0, 0, 38, 1, 1
PL, 245004957, 1, 0, 0, 0, 0, 0
IMU, 245045165, -0.0007190034, 0.004853419, 0.002604564, 0.1527497, 0.07399543, -9.763109, 0, 0, 35.48753, 1, 1
IMU2, 245045165, -0.009836633, -0.01370795, -0.00175959, 0.1305325, -0.00654438, -9.617332, 0, 0, 38, 1, 1
PL, 245045190, 1, 0, 0, 0, 0, 0
CURR, 245083252, 24.78582, 1.131266, 46.35093
POWR, 245083262, 5.159472, 0.036, 1
MAG, 245083335, -38, -207, -50, -58, 13, 6, 0, 0, 0, 1, 245083327
MAG2, 245083335, -47, -222, -52, 45, -268, 203, 0, 0, 0, 1, 245083329
BARO, 245085119, -0.136701, 100328.1, 37.82, -0.1703237, 245085, 0
CTUN, 245085140, 0, 0, 0, 0.2993129, 0, 0.2678304, -0.13, 0.00, 0.18, 0, 0, 31
ATT, 245085201, -1.11, -1.11, 0.22, 0.22, 103.27, 103.27, 0.00, 0.00
NKF1, 245085211, -1.11, 0.22, 103.27, 0.1050211, -0.1848665, -0.3134402, 0, 0, 0, -0.2678304, -0.02, 0.19, 0.11
NKF2, 245085211, 9, 0.00, 0.00, 0.00, 0.00, 0.00, 221, 0, -51, 0, 0, 0, 0
NKF3, 245085211, 0.00, 0.00, 0.00, 0.14, -0.26, -0.52, 0, 0, 0, 2.04, 0.00
NKF4, 245085211, 0.00, 0.00, 0.03, 0.02, 0.00, 4.459408E-06, 0, 0, 0, 19, 485, 256, 0
NKF5, 245085211, 0, 0, 0, 0, 0.37, 0.03, 0.27, 0.09, 0.15, 0.0005431217, 0.010172, 0.1470174
NKF6, 245085211, -1.00, -1.40, 99.76, 0.138758, 0.642004, -0.03031377, 0, 0, 0, 0.0473593, -0.19, -0.39, -0.08
NKF7, 245085211, 9, 0.00, 0.00, 0.00, 0.00, 0.00, 220, 0, -57, 0, 0, 0, 0
NKF8, 245085211, 0.00, 0.00, 0.00, 0.19, 0.89, -0.21, 0, 0, 0, -1.07, 0.00
NKF9, 245085211, 0.00, 0.01, 0.01, 0.01, 0.00, 1.336243E-05, 0, 0, 0, 19, 485, 256, 0
AHR2, 245085399, -1.01, -0.30, 100.98, -0.13, 0, 0
RATE, 245085460, 0.004341, 0.004341, -5.248244E-05, 0.06869425, 0.06869425, -0.0001401972, 0.04895263, 0.04895263, 5.1202E-06, 0, 3.213215, 0
MOTB, 245085480, 1, 1, 0, 1
RCIN, 245085491, 1514, 1518, 1094, 1514, 968, 1094, 1094, 1094, 1514, 1514, 1514, 1514, 1514, 1514
RCOU, 245085610, 1094, 1094, 1094, 1094, 0, 0, 0, 0, 1900, 1100, 0, 0, 0, 0
VIBE, 245085630, 0.03807107, 0.03933878, 0.05489367, 0, 0, 0
CTRL, 245085695, 4.057906E-05, 0.0001680788, 4.244302E-05, 0.0001761631, 1.300126E-05
IMU, 245085724, -0.0004023554, 0.004606118, 0.002920148, 0.1612008, 0.03637021, -9.739128, 0, 0, 35.53186, 1, 1
IMU2, 245085724, -0.006047665, -0.01186428, -0.006160951, 0.2706681, 0.003259641, -9.65922, 0, 0, 38.125, 1, 1
PL, 245085749, 1, 0, 0, 0, 0, 0
IMU, 245124878, -0.001758027, 0.005669131, 0.002406425, 0.1663204, 0.09370922, -9.756015, 0, 0, 35.48753, 1, 1
IMU2, 245124878, -0.004194712, -0.009604152, -0.005275722, 0.1887444, -0.01511346, -9.66034, 0, 0, 38, 1, 1
PL, 245124904, 1, 0, 0, 0, 0, 0
IMU, 245165107, 1.894866E-05, 0.004032442, 0.003103703, 0.1583661, 0.09737059, -9.742113, 0, 0, 35.53186, 1, 1
IMU2, 245165107, -0.00698229, -0.01156073, -0.00690756, 0.1318557, -0.04940537, -9.70306, 0, 0, 38, 1, 1
PL, 245165133, 1, 0, 0, 0, 0, 0
GPS, 245183324, 1, 0, 0, 0, 99.99, 0, 0, -17.00, 0, 0, 0, 1
GPA, 245183324, 99.99, 393.28, 165.44, 344.64, 1, 245183
CURR, 245183355, 24.77525, 1.171553, 46.38351
POWR, 245183365, 5.149805, 0.033, 1
MAG, 245183397, -38, -209, -50, -58, 13, 6, 0, 0, 0, 1, 245183389
MAG2, 245183397, -46, -221, -52, 45, -268, 203, 0, 0, 0, 1, 245183391
BARO, 245185175, -0.2843381, 100329.8, 37.83, -0.07506625, 245185, 0
CTUN, 245185196, 0, 0, 0, 0.2993129, 0, 0.2880799, -0.28, 0.00, 0.18, 0, 0, 31
ATT, 245185252, -1.11, -1.11, 0.23, 0.23, 103.27, 103.27, 0.00, 0.00
NKF1, 245185262, -1.11, 0.23, 103.27, 0.107412, -0.1923076, -0.3151789, 0, 0, 0, -0.2880799, -0.02, 0.19, 0.11
NKF2, 245185262, 9, 0.00, 0.00, 0.00, 0.00, 0.00, 221, 0, -51, 0, 0, 0, 0
NKF3, 245185262, 0.00, 0.00, 0.00, 0.15, -0.28, -0.46, 0, 0, 0, 1.52, 0.00
NKF4, 245185262, 0.00, 0.00, 0.03, 0.01, 0.00, 4.97783E-06, 0, 0, 0, 19, 485, 256, 0
NKF5, 245185262, 0, 0, 0, 0, 0.38, 0.03, 0.27, 0.09, 0.15, 0.0005146241, 0.009619673, 0.1409991
NKF6, 245185262, -1.00, -1.43, 99.75, 0.1441719, 0.6632385, -0.02654337, 0, 0, 0, 0.04838536, -0.19, -0.39, -0.08
NKF7, 245185262, 9, 0.00, 0.00, 0.00, 0.00, 0.00, 220, 0, -57, 0, 0, 0, 0
NKF8, 245185262, 0.00, 0.00, 0.00, 0.20, 0.95, -0.13, 0, 0, 0, -1.60, 0.00
NKF9, 245185262, 0.00, 0.01, 0.00, 0.01, 0.00, 1.486188E-05, 0, 0, 0, 19, 485, 256, 0
AHR2, 245185441, -1.01, -0.30, 100.98, -0.28, 0, 0
RATE, 245185458, 0.01393954, 0.01393954, 9.625115E-05, 0.004268241, 0.004268241, -0.0001306644, 0.09854694, 0.09854694, -1.59076E-05, 0, 4.556847, 0
MOTB, 245185479, 1, 1, 0, 1
RCIN, 245185489, 1514, 1518, 1094, 1514, 968, 1094, 1094, 1094, 1514, 1514, 1514, 1514, 1514, 1514
RCOU, 245185559, 1094, 1094, 1094, 1094, 0, 0, 0, 0, 1900, 1100, 0, 0, 0, 0
VIBE, 245185578, 0.0388918, 0.03787209, 0.04971267, 0, 0, 0
CTRL, 245185597, 3.730064E-05, 0.0001523124, 4.452719E-05, 0.0001816397, 1.412806E-05
IMU, 245205110, -0.001323085, 0.004582226, 0.004221953, 0.148593, 0.02306288, -9.771902, 0, 0, 35.53186, 1, 1
IMU2, 245205110, -0.00399984, -0.008662986, 0.005449436, 0.2257422, -0.06542346, -9.756773, 0, 0, 38, 1, 1
PL, 245205135, 1, 0, 0, 0, 0, 0
IMU, 245244915, -0.00159128, 0.004475599, 0.002508342, 0.1611839, 0.07923853, -9.744236, 0, 0, 35.53186, 1, 1
IMU2, 245244915, -0.006089681, -0.01266043, -0.004825001, 0.2173824, -0.02877237, -9.713357, 0, 0, 38, 1, 1
PL, 245244941, 1, 0, 0, 0, 0, 0
CURR, 245283291, 24.78709, 1.1361, 46.41505
POWR, 245283301, 5.15625, 0.033, 1
MAG, 245283333, -38, -208, -48, -58, 13, 6, 0, 0, 0, 1, 245283325
MAG2, 245283333, -46, -221, -54, 45, -268, 203, 0, 0, 0, 1, 245283327
BARO, 245284986, -0.1695092, 100328.5, 37.83, -0.1691675, 245284, 0
CTUN, 245285065, 0, 0, 0, 0.2993129, 0, 0.3083485, -0.16, 0.00, 0.18, 0, 0, 31
ATT, 245285120, -1.11, -1.11, 0.23, 0.23, 103.27, 103.27, 0.00, 0.00
NKF1, 245285240, -1.11, 0.23, 103.27, 0.111451, -0.2005332, -0.3176128, 0, 0, 0, -0.3083485, -0.02, 0.19, 0.11
NKF2, 245285240, 9, 0.00, 0.00, 0.00, 0.00, 0.00, 221, 0, -51, 0, 0, 0, 0
NKF3, 245285240, 0.00, 0.00, 0.00, 0.16, -0.29, -0.51, 0, 0, 0, 2.35, 0.00
NKF4, 245285240, 0.00, 0.00, 0.03, 0.02, 0.00, 5.598689E-06, 0, 0, 0, 19, 485, 256, 0
NKF5, 245285240, 0, 0, 0, 0, 0.38, 0.02, 0.30, 0.09, 0.16, 0.0005222583, 0.009086947, 0.133147
NKF6, 245285240, -1.00, -1.44, 99.76, 0.1508346, 0.6896706, -0.0267513, 0, 0, 0, 0.04870844, -0.19, -0.39, -0.08
NKF7, 245285240, 9, 0.00, 0.00, 0.00, 0.00, 0.00, 220, 0, -57, 0, 0, 0, 0
NKF8, 245285240, 0.00, 0.00, 0.00, 0.21, 1.01, -0.17, 0, 0, 0, -0.75, 0.00
NKF9, 245285240, 0.00, 0.01, 0.01, 0.00, 0.00, 1.667951E-05, 0, 0, 0, 19, 485, 256, 0
AHR2, 245285378, -1.00, -0.29, 100.99, -0.16, 0, 0
RATE, 245285395, 0.05314315, 0.05314315, 2.812234E-05, 0.1006251, 0.1006251, -0.0001314697, -0.04744894, -0.04744894, 3.599483E-05, 0, 6.372833, 0
MOTB, 245285415, 1, 1, 0, 1
RCIN, 245285426, 1514, 1518, 1094, 1514, 968, 1094, 1094, 1094, 1514, 1514, 1514, 1514, 1514, 1514
RCOU, 245285505, 1094, 1094, 1094, 1094, 0, 0, 0, 0, 1900, 1100, 0, 0, 0, 0
VIBE, 245285525, 0.04445371, 0.04191312, 0.04628656, 0, 0, 0
CTRL, 245285544, 3.970924E-05, 0.0001530134, 4.01094E-05, 0.0001651015, 1.64976E-05
IMU, 245285572, 0.0004490527, 0.005165888, 0.00124009, 0.1297822, 0.118744, -9.770731, 0, 0, 35.53186, 1, 1
IMU2, 245285572, -0.001992722, -0.01301536, -0.001461648, 0.1932539, -0.0605399, -9.680367, 0, 0, 38.125, 1, 1
PL, 245285639, 1, 0, 0, 0, 0, 0
IMU, 245325157, -0.0003597333, 0.004916044, 0.003765262, 0.1519995, 0.04633905, -9.760903, 0, 0, 35.48753, 1, 1
IMU2, 245325157, -0.006126399, -0.01368852, -0.004832729, 0.2326718, -0.05586369, -9.654005, 0, 0, 38, 1, 1
PL, 245325182, 1, 0, 0, 0, 0, 0
IMU, 245364941, -0.001764188, 0.005704145, 0.003028125, 0.1647981, 0.04869981, -9.746357, 0, 0, 35.57618, 1, 1
IMU2, 245364941, -0.007992218, -0.006989939, -0.004410184, 0.2004855, -0.1096599, -9.74897, 0, 0, 38, 1, 1
PL, 245364999, 1, 0, 0, 0, 0, 0
GPS, 245383283, 1, 0, 0, 0, 99.99, 0, 0, -17.00, 0, 0, 0, 1
GPA, 245383283, 99.99, 393.28, 178.24, 344.64, 1, 245383
CURR, 245383314, 24.77252, 1.22312, 46.44903
POWR, 245383323, 5.141748, 0.033, 1
MAG, 245383396, -41, -208, -47, -58, 13, 6, 0, 0, 0, 1, 245383388
MAG2, 245383396, -46, -222, -51, 45, -268, 203, 0, 0, 0, 1, 245383390
BARO, 245384965, -0.04921236, 100327.1, 37.83, -0.266527, 245384, 0
CTUN, 245384987, 0, 0, 0, 0.2993129, 0, 0.3276531, -0.04, 0.00, 0.18, 0, 0, 31
ATT, 245385153, -1.12, -1.12, 0.24, 0.24, 103.27, 103.27, 0.00, 0.00
NKF1, 245385162, -1.12, 0.24, 103.27, 0.1172441, -0.2080098, -0.3193862, 0, 0, 0, -0.3276531, -0.02, 0.19, 0.11
NKF2, 245385162, 9, 0.00, 0.00, 0.00, 0.00, 0.00, 221, 0, -51, 0, 0, 0, 0
NKF3, 245385162, 0.00, 0.00, 0.00, 0.17, -0.31, -0.67, 0, 0, 0, 2.51, 0.00
NKF4, 245385162, 0.00, 0.00, 0.04, 0.02, 0.00, 6.31589E-06, 0, 0, 0, 19, 485, 256, 0
NKF5, 245385162, 0, 0, 0, 0, 0.39, 0.02, 0.30, 0.09, 0.16, 0.0005371672, 0.008726588, 0.1204643
NKF6, 245385162, -1.01, -1.46, 99.76, 0.1598891, 0.7136113, -0.02321818, 0, 0, 0, 0.04948718, -0.19, -0.39, -0.08
NKF7, 245385162, 9, 0.00, 0.00, 0.00, 0.00, 0.00, 220, 0, -57, 0, 0, 0, 0
NKF8, 245385162, 0.00, 0.00, 0.00, 0.23, 1.08, -0.31, 0, 0, 0, -0.60, 0.00
NKF9, 245385162, 0.00, 0.01, 0.02, 0.00, 0.00, 1.882423E-05, 0, 0, 0, 19, 485, 256, 0
AHR2, 245385336, -1.00, -0.29, 100.99, -0.04, 0, 0
RATE, 245385353, -0.04149848, -0.04149848, 5.257037E-05, 0.08206961, 0.08206961, -0.0001109233, -0.0104959, -0.0104959, 2.559949E-05, 0, 5.730629, 0
MOTB, 245385373, 1, 1, 0, 1
RCIN, 245385383, 1514, 1518, 1094, 1514, 968, 1094, 1094, 1094, 1514, 1514, 1514, 1514, 1514, 1514
RCOU, 245385500, 1094, 1094, 1094, 1094, 0, 0, 0, 0, 1900, 1100, 0, 0, 0, 0
VIBE, 245385520, 0.04092393, 0.04039878, 0.04323055, 0, 0, 0
CTRL, 245385539, 3.898642E-05, 0.0001551992, 4.126171E-05, 0.0001733687, 1.632934E-05
IMU, 245404919, -0.001405225, 0.004967033, 0.001737783, 0.151702, 0.09141435, -9.749491, 0, 0, 35.57618, 1, 1
IMU2, 245404919, -0.003623877, -0.01589036, -0.006575175, 0.2106009, -0.004621487, -9.762232, 0, 0, 38, 1, 1
PL, 245404944, 1, 0, 0, 0, 0, 0
IMU, 245444920, -0.0001787675, 0.003801964, 0.003954419, 0.1662992, 0.09946317, -9.741776, 0, 0, 35.57618, 1, 1
IMU2, 245444920, -0.006727098, -0.005583616, -0.002679635, 0.2301199, 0.04157574, -9.696589, 0, 0, 38, 1, 1
PL, 245444945, 1, 0, 0, 0, 0, 0
EV, 245473394, 57
CURR, 245483160, 24.80303, 1.096457, 46.47945
POWR, 245483169, 5.086963, 0.033, 1
MAG, 245483294, -39, -208, -50, -58, 13, 6, 0, 0, 0, 1, 245483286
MAG2, 245483294, -46, -221, -54, 45, -268, 203, 0, 0, 0, 1, 245483288
BARO, 245485178, 0.00820206, 100326.5, 37.83, 0.06568392, 245485, 0
CTUN, 245485199, 0, 0, 0, 0.2993129, 0, 0.3449488, 0.00, 0.00, 0.18, 0, 0, 31
DU32, 245485285, 7, 58840
ATT, 245485425, -1.12, -1.12, 0.25, 0.25, 103.27, 103.27, 0.00, 0.00
NKF1, 245485434, -1.12, 0.25, 103.27, 0.1202502, -0.2156893, -0.3197851, 0, 0, 0, -0.3449488, -0.02, 0.19, 0.11
NKF2, 245485434, 9, 0.00, 0.00, 0.00, 0.00, 0.00, 221, 0, -51, 0, 0, 0, 0
NKF3, 245485434, 0.00, 0.00, 0.00, 0.18, -0.33, -0.56, 0, 0, 0, 2.45, 0.00
NKF4, 245485434, 0.00, 0.00, 0.03, 0.02, 0.00, 7.127206E-06, 0, 0, 0, 19, 485, 256, 0
NKF5, 245485434, 0, 0, 0, 0, 0.38, 0.00, 0.31, 0.09, 0.16, 0.0005540284, 0.008254044, 0.1138473
NKF6, 245485434, -1.01, -1.48, 99.75, 0.1604, 0.7416228, -0.02315217, 0, 0, 0, 0.05194218, -0.19, -0.39, -0.08
NKF7, 245485434, 9, 0.00, 0.00, 0.00, 0.00, 0.00, 220, 0, -57, 0, 0, 0, 0
NKF8, 245485434, 0.00, 0.00, 0.00, 0.24, 1.14, -0.19, 0, 0, 0, -0.66, 0.00
NKF9, 245485434, 0.00, 0.01, 0.01, 0.00, 0.00, 2.120317E-05, 0, 0, 0, 19, 485, 256, 0
AHR2, 245485581, -1.00, -0.29, 101.00, 0, 0, 0
RATE, 245485597, 0.01904573, 0.01904573, 6.774909E-05, 0.1149392, 0.1149392, -5.623688E-05, 0.1418984, 0.1418984, -2.520452E-05, 0, 2.948952, 0
MOTB, 245485617, 1, 1, 0, 1
RCIN, 245485632, 1514, 1518, 1094, 1514, 968, 1094, 1094, 1094, 1514, 1514, 1514, 1514, 1514, 1514
RCOU, 245485702, 1094, 1094, 1094, 1094, 0, 0, 0, 0, 1900, 1100, 0, 0, 0, 0
VIBE, 245485722, 0.04893653, 0.04568123, 0.05543758, 0, 0, 0
CTRL, 245485740, 3.91366E-05, 0.0001614088, 4.104149E-05, 0.0001686212, 1.916643E-05
IMU, 245485815, -0.0001463008, 0.005417406, 0.004547087, 0.162694, 0.03231069, -9.736543, 0, 0, 35.48753, 1, 1
IMU2, 245485815, -0.001955789, -0.006689142, 0.001465875, 0.18722, -0.01861616, -9.738764, 0, 0, 38, 1, 1
PL, 245485840, 1, 0, 0, 0, 0, 0
IMU, 245524963, -0.0016655, 0.005385415, 0.001425422, 0.1508565, 0.05637424, -9.750827, 0, 0, 35.48753, 1, 1
IMU2, 245524963, -0.00448009, -0.006858342, -0.002933685, 0.1851803, -0.001689213, -9.624857, 0, 0, 38, 1, 1
PL, 245524988, 1, 0, 0, 0, 0, 0
IMU, 245564997, -0.001613489, 0.004181878, 0.003248704, 0.1601891, 0.09844504, -9.757866, 0, 0, 35.57618, 1, 1
IMU2, 245564997, -0.005785261, -0.01867106, -0.0036551, 0.1987891, -0.01860028, -9.670245, 0, 0, 38, 1, 1
PL, 245565084, 1, 0, 0, 0, 0, 0
GPS, 245583562, 1, 0, 0, 0, 99.99, 0, 0, -17.00, 0, 0, 0, 1
GPA, 245583562, 99.99, 393.28, 191.36, 344.64, 1, 245583
CURR, 245583636, 24.78163, 1.152215, 46.51161
POWR, 245583646, 5.153027, 0.029, 1
MAG, 245583678, -41, -208, -47, -58, 13, 6, 0, 0, 0, 1, 245583670
MAG2, 245583678, -46, -221, -52, 45, -268, 203, 0, 0, 0, 1, 245583672
BARO, 245585189, -0.09295668, 100327.6, 37.83, 0.5520676, 245585, 0
CTUN, 245585294, 0, 0, 0, 0.2993129, 0, 0.3620336, -0.09, 0.00, 0.18, 0, 0, 32
ATT, 245585350, -1.12, -1.12, 0.26, 0.26, 103.27, 103.27, 0.00, 0.00
NKF1, 245585360, -1.12, 0.26, 103.27, 0.1242139, -0.2237352, -0.3209639, 0, 0, 0, -0.3620337, -0.02, 0.19, 0.11
NKF2, 245585360, 9, 0.00, 0.00, 0.00, 0.00, 0.00, 221, 0, -51, 0, 0, 0, 0
NKF3, 245585360, 0.00, 0.00, 0.00, 0.19, -0.35, -0.45, 0, 0, 0, 1.58, 0.00
NKF4, 245585360, 0.00, 0.00, 0.02, 0.01, 0.00, 8.032704E-06, 0, 0, 0, 19, 485, 256, 0
NKF5, 245585360, 0, 0, 0, 0, 0.39, 0.00, 0.31, 0.09, 0.16, 0.0005322983, 0.007614235, 0.1114965
NKF6, 245585360, -1.02, -1.51, 99.75, 0.1618956, 0.7652768, -0.01943372, 0, 0, 0, 0.05443833, -0.19, -0.39, -0.08
NKF7, 245585360, 9, 0.00, 0.00, 0.00, 0.00, 0.00, 220, 0, -57, 0, 0, 0, 0
NKF8, 245585360, 0.00, 0.00, 0.00, 0.26, 1.21, -0.06, 0, 0, 0, -1.53, 0.00
NKF9, 245585360, 0.00, 0.01, 0.00, 0.01, 0.00, 2.386118E-05, 0, 0, 0, 19, 485, 256, 0
AHR2, 245585541, -1.00, -0.29, 101.00, -0.09, 0, 0
RATE, 245585558, -0.07171434, -0.07171434, -0.0001169769, 0.08164692, 0.08164692, 0.0001337791, 0.07702759, 0.07702759, -6.662666E-06, 0, 5.222893, 0
MOTB, 245585578, 1, 1, 0, 1
RCIN, 245585588, 1514, 1518, 1094, 1514, 968, 1094, 1094, 1094, 1514, 1514, 1514, 1514, 1514, 1514
RCOU, 245585707, 1094, 1094, 1094, 1094, 0, 0, 0, 0, 1900, 1100, 0, 0, 0, 0
VIBE, 245585727, 0.04336673, 0.04026711, 0.05424507, 0, 0, 0
CTRL, 245585746, 4.123754E-05, 0.0001717661, 4.295287E-05, 0.0001817138, 1.880526E-05
RAD, 245590104, 216, 218, 100, 70, 72, 0, 0
RAD, 245593032, 216, 218, 100, 70, 72, 0, 0
IMU, 245605074, -0.0006625616, 0.004371309, 0.002998993, 0.1592207, 0.06140995, -9.748924, 0, 0, 35.48753, 1, 1
IMU2, 245605074, -0.004030855, -0.003363552, -0.001255319, 0.1422686, 0.00174332, -9.747899, 0, 0, 38.125, 1, 1
PL, 245605099, 1, 0, 0, 0, 0, 0
IMU, 245644907, -0.0008933502, 0.00499202, 0.002680567, 0.1436273, 0.06311271, -9.737831, 0, 0, 35.48753, 1, 1
IMU2, 245644907, -0.01010485, -0.01076682, -0.007000206, 0.2037569, -0.0189121, -9.701854, 0, 0, 38.125, 1, 1
PL, 245644932, 1, 0, 0, 0, 0, 0
CURR, 245683216, 24.77188, 1.215385, 46.54523
POWR, 245683226, 5.149805, 0.033, 1
MAG, 245683258, -40, -208, -50, -58, 13, 6, 0, 0, 0, 1, 245683250
MAG2, 245683258, -47, -221, -52, 45, -268, 203, 0, 0, 0, 1, 245683253
BARO, 245685062, -0.1749773, 100328.6, 37.83, 0.503538, 245684, 0
CTUN, 245685084, 0, 0, 0, 0.2993129, 0, 0.3801778, -0.17, 0.00, 0.18, 0, 0, 32
ATT, 245685193, -1.13, -1.13, 0.27, 0.27, 103.27, 103.27, 0.00, 0.00
NKF1, 245685203, -1.13, 0.27, 103.27, 0.128582, -0.2323157, -0.3220788, 0, 0, 0, -0.3801778, -0.02, 0.19, 0.11
NKF2, 245685203, 9, 0.00, 0.00, 0.00, 0.00, 0.00, 221, 0, -51, 0, 0, 0, 0
NKF3, 245685203, 0.00, 0.00, 0.00, 0.20, -0.37, -0.41, 0, 0, 0, 2.32, 0.00
NKF4, 245685203, 0.00, 0.00, 0.02, 0.02, 0.00, 9.034512E-06, 0, 0, 0, 19, 485, 256, 0
NKF5, 245685203, 0, 0, 0, 0, 0.41, 0.00, 0.31, 0.09, 0.16, 0.0005429155, 0.006993094, 0.1098118
NKF6, 245685203, -1.03, -1.51, 99.74, 0.1679821, 0.7888756, -0.01851971, 0, 0, 0, 0.05533123, -0.20, -0.39, -0.08
NKF7, 245685203, 9, 0.00, 0.00, 0.00, 0.00, 0.00, 220, 0, -57, 0, 0, 0, 0
NKF8, 245685203, 0.00, 0.00, 0.00, 0.27, 1.28, -0.01, 0, 0, 0, -0.77, 0.00
NKF9, 245685203, 0.00, 0.01, 0.00, 0.00, 0.00, 2.684473E-05, 0, 0, 0, 19, 485, 256, 0
AHR2, 245685341, -1.00, -0.28, 101.00, -0.17, 0, 0
RATE, 245685358, -0.09945312, -0.09945312, 0.0001310662, 0.0763716, 0.0763716, -8.988928E-05, 0.009837473, 0.009837473, 8.949558E-06, 0, 2.342987, 0
MOTB, 245685378, 1, 1, 0, 1
RCIN, 245685388, 1514, 1518, 1094, 1514, 968, 1094, 1094, 1094, 1514, 1514, 1514, 1514, 1514, 1514
RCOU, 245685464, 1094, 1094, 1094, 1094, 0, 0, 0, 0, 1900, 1100, 0, 0, 0, 0
