FMT, 128, 89, FMT, BBnNZ, Type,Length,Name,Format,Columns
FMT, 129, 23, PARM, Nf, Name,Value
FMT, 130, 45, GPS, BIHBcLLeeEefI, Status,TimeMS,Week,NSats,HDop,Lat,Lng,RelAlt,Alt,Spd,GCrs,VZ,T
FMT, 131, 31, IMU, Iffffff, TimeMS,GyrX,GyrY,GyrZ,AccX,AccY,AccZ
FMT, 132, 67, MSG, Z, Message
FMT, 133, 35, RCIN, Ihhhhhhhhhhhhhh, TimeMS,C1,C2,C3,C4,C5,C6,C7,C8,C9,C10,C11,C12,C13,C14
FMT, 134, 23, RCOU, Ihhhhhhhh, TimeMS,Chan1,Chan2,Chan3,Chan4,Chan5,Chan6,Chan7,Chan8
FMT, 136, 21, BARO, Iffcf, TimeMS,Alt,Press,Temp,CRt
FMT, 137, 13, POWR, ICCH, TimeMS,Vcc,VServo,Flags
FMT, 145, 41, CMD, IHHHfffffff, TimeMS,CTot,CNum,CId,Prm1,Prm2,Prm3,Prm4,Lat,Lng,Alt
FMT, 146, 16, RAD, IBBBBBHH, TimeMS,RSSI,RemRSSI,TxBuf,Noise,RemNoise,RxErrors,Fixed
FMT, 148, 31, CAM, IHLLeeccC, GPSTime,GPSWeek,Lat,Lng,Alt,RelAlt,Roll,Pitch,Yaw
FMT, 144, 46, GPS2, BIHBcLLeEefIBI, Status,TimeMS,Week,NSats,HDop,Lat,Lng,Alt,Spd,GCrs,VZ,T,DSc,DAg
FMT, 135, 31, IMU2, Iffffff, TimeMS,GyrX,GyrY,GyrZ,AccX,AccY,AccZ
FMT, 149, 31, IMU3, Iffffff, TimeMS,GyrX,GyrY,GyrZ,AccX,AccY,AccZ
FMT, 138, 25, AHR2, IccCfLL, TimeMS,Roll,Pitch,Yaw,Alt,Lat,Lng
FMT, 139, 25, SIM, IccCfLL, TimeMS,Roll,Pitch,Yaw,Alt,Lat,Lng
FMT, 140, 43, EKF1, IccCffffffccc, TimeMS,Roll,Pitch,Yaw,VN,VE,VD,PN,PE,PD,GX,GY,GZ
FMT, 141, 26, EKF2, Ibbbcchhhhhh, TimeMS,AX,AY,AZ,VWN,VWE,MN,ME,MD,MX,MY,MZ
FMT, 142, 27, EKF3, Icccccchhhc, TimeMS,IVN,IVE,IVD,IPN,IPE,IPD,IMX,IMY,IMZ,IVT
FMT, 143, 25, EKF4, IcccccccbbBB, TimeMS,SV,SP,SH,SMX,SMY,SMZ,SVT,OFN,EFE,FS,DS
FMT, 150, 30, TERR, IBLLHffHH, TimeMS,Status,Lat,Lng,Spacing,TerrH,CHeight,Pending,Loaded
FMT, 151, 12, UBX1, IBHBB, TimeMS,Instance,noisePerMS,jamInd,aPower
FMT, 152, 12, UBX2, IBbBbB, TimeMS,Instance,ofsI,magI,ofsQ,magQ
FMT, 25, 25, ATUN, BBfffff, Axis,TuneStep,RateMin,RateMax,RPGain,RDGain,SPGain
FMT, 26, 9, ATDE, cf, Angle,Rate
FMT, 9, 23, CURR, IhIhhhf, TimeMS,ThrOut,ThrInt,Volt,Curr,Vcc,CurrTot
FMT, 12, 20, OF, hhBccee, Dx,Dy,SQual,X,Y,Roll,Pitch
FMT, 5, 47, NTUN, Iffffffffff, TimeMS,DPosX,DPosY,PosX,PosY,DVelX,DVelY,VelX,VelY,DAccX,DAccY
FMT, 4, 33, CTUN, Ihhhffecchh, TimeMS,ThrIn,AngBst,ThrOut,DAlt,Alt,BarAlt,DSAlt,SAlt,DCRt,CRt
FMT, 15, 25, MAG, Ihhhhhhhhh, TimeMS,MagX,MagY,MagZ,OfsX,OfsY,OfsZ,MOfsX,MOfsY,MOfsZ
FMT, 27, 25, MAG2, Ihhhhhhhhh, TimeMS,MagX,MagY,MagZ,OfsX,OfsY,OfsZ,MOfsX,MOfsY,MOfsZ
FMT, 28, 25, MAG3, Ihhhhhhhhh, TimeMS,MagX,MagY,MagZ,OfsX,OfsY,OfsZ,MOfsX,MOfsY,MOfsZ
FMT, 6, 17, PM, HHIhBHB, NLon,NLoop,MaxT,PMT,I2CErr,INSErr,INAVErr
FMT, 1, 23, ATT, IccccCCCC, TimeMS,DesRoll,Roll,DesPitch,Pitch,DesYaw,Yaw,ErrRP,ErrYaw
FMT, 3, 6, MODE, Mh, Mode,ThrCrs
FMT, 10, 3, STRT, , 
FMT, 13, 4, EV, B, Id
FMT, 20, 6, D16, Bh, Id,Value
FMT, 21, 6, DU16, BH, Id,Value
FMT, 22, 8, D32, Bi, Id,Value
FMT, 23, 8, DU32, BI, Id,Value
FMT, 24, 8, DFLT, Bf, Id,Value
FMT, 19, 5, ERR, BB, Subsys,ECode
MSG, ArduCopter V3.2.1 (36b405fb)
MSG, PX4: ce602658 NuttX: 475b8c15
MSG, PX4v2 001E0035 35345107 34343430
MSG, Frame: QUAD
MODE, Stabilize, 996
EV, 10
MODE, Stabilize, 996
BARO, 22175, 0.207573, 100390.4, 24.89, 0.1725782
CTUN, 22175, 0, 0, 0, 0, -1.07, 0.20, 0.00, 0.00, 0, -81
ATT, 22175, 0.00, -0.10, 0.00, 1.60, 111.20, 111.20, 0.00, 0.00
EKF1, 22175, 0.61, 0.75, 0.00, 0, 0, 0, 0, 0, 0, 0.00, 0.00, 0.00
EKF2, 22175, 50, 0, 0, 0.00, 0.00, 0, 0, 0, 0, 0, 0
EKF3, 22175, 0.00, 0.00, 0.00, 0.00, 0.00, 0.00, 0, 0, 0, 0.00
EKF4, 22175, 0.00, 0.00, 0.00, 0.00, 0.00, 0.00, 0.00, 0, 0, 0, 0
RCIN, 22175, 1513, 1515, 1094, 1514, 968, 1235, 1934, 1094, 1514, 1514, 1514, 1514, 1514, 1514
RCOU, 22176, 1094, 1094, 1094, 1094, 0, 0, 0, 0
IMU, 22176, 0.0002828874, 0.0008084401, -0.0007607443, -0.02106847, 0.2462259, -9.555418
IMU2, 22176, 0.0008776551, 0.0001332313, -0.0003950535, 0.1076903, 0.1341504, -9.795341
UBX1, 22194, 0, 87, 8, 1
UBX2, 22194, 0, -27, 119, 1, 127
GPS, 1, 0, 0, 0, 99.99, -12.0730059, -77.0826488, 0.00, 89.20, 0.00, 0.00, 0, 22194
IMU, 22195, 0.0005326066, 0.0001219809, -0.0007009199, -0.02272628, 0.2712542, -9.538272
IMU2, 22195, -0.006201559, 0.00185255, 0.001027611, 0.07775688, 0.05653286, -9.786157
GPS, 1, 0, 0, 0, 99.99, -12.0730059, -77.0826488, 0.00, 89.20, 0.00, 0.00, 0, 22214
IMU, 22216, -0.0008175466, -0.0007772781, 1.583435E-05, -0.01669999, 0.2541351, -9.505777
IMU2, 22216, -0.0007163854, -0.002771862, -0.004175752, 0.1349236, 0.01936054, -9.823508
IMU, 22235, -0.0003024358, -0.0002302527, -0.0001595197, -0.003455155, 0.2706818, -9.555063
IMU2, 22235, 0.002400769, 0.003618907, 0.001567328, 0.1330733, 0.1320105, -9.864165
IMU, 22256, 0.0005205572, 0.0006025881, -9.080209E-05, 0.004152391, 0.264343, -9.499302
IMU2, 22256, 0.003718374, 0.00181815, -0.0003191128, 0.1198833, 0.1216657, -9.840298
MAG, 22273, -78, -205, -73, -54, -7, -3, 0, 0, 0
MAG2, 22273, -142, -175, -87, 1, -279, 120, 0, 0, 0
BARO, 22275, 0.1966481, 100390.6, 24.91, -0.1389594
CTUN, 22275, 0, 0, 0, 0, 0.01, 0.19, 0.00, 0.00, 0, -80
ATT, 22276, 0.00, -0.10, 0.00, 1.59, 111.19, 111.19, 0.00, 0.00
EKF1, 22276, 0.61, 0.75, 0.00, 0, 0, 0, 0, 0, 0, 0.00, 0.00, 0.00
EKF2, 22276, 50, 0, 0, 0.00, 0.00, 0, 0, 0, 0, 0, 0
EKF3, 22276, 0.00, 0.00, 0.00, 0.00, 0.00, 0.00, 0, 0, 0, 0.00
EKF4, 22276, 0.00, 0.00, 0.00, 0.00, 0.00, 0.00, 0.00, 0, 0, 0, 0
RCIN, 22276, 1513, 1515, 1094, 1514, 968, 1235, 1934, 1094, 1514, 1514, 1514, 1514, 1514, 1514
RCOU, 22276, 1094, 1094, 1094, 1094, 0, 0, 0, 0
IMU, 22276, 0.0004231967, 0.0007075146, -0.0002310677, 0.009407099, 0.235914, -9.549404
IMU2, 22276, -0.0004981421, 0.0004222915, -0.00502143, 0.1614496, 0.07324195, -9.780869
IMU, 22295, -0.0003604293, 0.0004693456, 4.221685E-05, -0.008885402, 0.2460031, -9.532352
IMU2, 22295, 0.002688067, -0.008298069, -0.003267274, 0.1421138, 0.09012878, -9.860227
IMU, 22315, 7.491559E-06, 0.0007722378, -0.0002836455, -0.01813692, 0.2670412, -9.536545
IMU2, 22315, -0.001941029, 0.003553674, 0.0007937395, 0.1351702, 0.1248974, -9.836836
IMU, 22336, 0.0003420617, -0.0003109053, -0.0001596007, -0.01086699, 0.2608794, -9.519242
IMU2, 22336, 0.0004044417, -0.003436562, -0.0017133, 0.1102962, 0.1088647, -9.809286
IMU, 22356, 0.000188617, 9.171665E-06, -0.0007120511, -0.01062244, 0.2504176, -9.516185
IMU2, 22356, 0.006384814, -0.003884185, -0.001504825, 0.1744677, 0.0997169, -9.844157
MAG, 22373, -78, -205, -73, -54, -7, -3, 0, 0, 0
MAG2, 22373, -142, -175, -88, 1, -279, 120, 0, 0, 0
BARO, 22375, 0.2703911, 100389.7, 24.92, -0.1898382
CTUN, 22375, 0, 0, 0, 0, -0.05, 0.27, 0.00, 0.00, 0, -81
ATT, 22376, 0.00, -0.10, 0.00, 1.58, 111.19, 111.19, 0.00, 0.00
EKF1, 22376, 0.61, 0.75, 0.00, 0, 0, 0, 0, 0, 0, 0.00, 0.00, 0.00
EKF2, 22376, 50, 0, 0, 0.00, 0.00, 0, 0, 0, 0, 0, 0
EKF3, 22376, 0.00, 0.00, 0.00, 0.00, 0.00, 0.00, 0, 0, 0, 0.00
EKF4, 22376, 0.00, 0.00, 0.00, 0.00, 0.00, 0.00, 0.00, 0, 0, 0, 0
RCIN, 22376, 1513, 1515, 1094, 1514, 968, 1235, 1934, 1094, 1514, 1514, 1514, 1514, 1514, 1514
RCOU, 22376, 1094, 1094, 1094, 1094, 0, 0, 0, 0
IMU, 22376, -0.0001306124, 0.0002606958, 0.0001605824, -0.01567857, 0.2345059, -9.521627
IMU2, 22376, 0.002843017, -0.003364328, -0.001048634, 0.1545691, 0.1490166, -9.851937
GPS, 1, 0, 0, 0, 99.99, -12.0730059, -77.0826488, -0.06, 89.20, 0.00, 0.00, 0, 22393
IMU, 22395, -0.0005386509, 0.0008954704, 0.001175569, -0.01012863, 0.2528729, -9.56451
IMU2, 22395, -0.0009038411, -0.001497407, -0.0004012282, 0.131844, 0.1305304, -9.825804
IMU, 22415, -0.0004514903, -0.0001749136, -0.0005583819, -0.02440991, 0.2589658, -9.550564
IMU2, 22415, 0.004621293, -0.001549993, 0.00275703, 0.1366094, 0.08748305, -9.902887
IMU, 22435, -0.0005096644, 0.0002243035, 0.001343892, -0.006986588, 0.2670851, -9.531243
IMU2, 22435, -0.002799342, 0.002780147, -0.002281119, 0.1333346, 0.1066481, -9.880939
IMU, 22456, -0.0002941117, 0.0001393333, 1.753587E-05, -0.01988669, 0.2647401, -9.543986
IMU2, 22456, 0.004512491, 0.001898739, 0.00261104, 0.1505102, 0.1221772, -9.81889
MAG, 22473, -76, -206, -73, -54, -7, -3, 0, 0, 0
MAG2, 22474, -142, -174, -89, 1, -279, 120, 0, 0, 0
BARO, 22476, 0.256735, 100389.9, 24.93, -0.1829186
CTUN, 22476, 0, 0, 0, 0, -0.11, 0.25, 0.00, 0.00, 0, -82
ATT, 22476, 0.00, -0.09, 0.00, 1.58, 111.19, 111.19, 0.00, 0.01
EKF1, 22476, 0.61, 0.75, 0.00, 0, 0, 0, 0, 0, 0, 0.00, 0.00, 0.00
EKF2, 22476, 50, 0, 0, 0.00, 0.00, 0, 0, 0, 0, 0, 0
EKF3, 22476, 0.00, 0.00, 0.00, 0.00, 0.00, 0.00, 0, 0, 0, 0.00
EKF4, 22476, 0.00, 0.00, 0.00, 0.00, 0.00, 0.00, 0.00, 0, 0, 0, 0
RCIN, 22476, 1513, 1515, 1094, 1514, 968, 1235, 1934, 1094, 1514, 1514, 1514, 1514, 1514, 1514
RCOU, 22476, 1094, 1094, 1094, 1094, 0, 0, 0, 0
IMU, 22476, -0.0001796558, 0.0005276538, -0.0003932538, -0.001837537, 0.2564644, -9.519542
IMU2, 22476, 0.002479579, 0.002882265, 0.001920408, 0.1149461, 0.1061419, -9.865226
IMU, 22496, 0.0005321763, 0.0003642365, -0.0006800778, -0.0197105, 0.2484753, -9.532488
IMU2, 22496, 0.004177045, 0.002283469, -0.0009493951, 0.1058049, 0.132044, -9.809069
IMU, 22516, -0.0004358105, 0.0005806126, -0.0003526937, -0.008651234, 0.2443971, -9.532321
IMU2, 22516, 0.006140368, 0.005430706, 0.003642548, 0.1626801, 0.09938729, -9.870453
IMU, 22536, 0.000632979, -0.0001078397, -0.0007265415, -0.03350428, 0.2419275, -9.56933
IMU2, 22536, 0.002252685, 0.0001380369, 0.001190539, 0.1922619, 0.1299502, -9.851642
IMU, 22556, 0.001034938, -1.133233E-05, -0.0001544729, -0.002115663, 0.2469178, -9.538724
IMU2, 22556, 0.002085611, 0.005056135, -0.0007603451, 0.1320435, 0.1377299, -9.847325
MAG, 22574, -77, -205, -73, -54, -7, -3, 0, 0, 0
MAG2, 22574, -143, -174, -88, 1, -279, 120, 0, 0, 0
BARO, 22576, 0.2840472, 100389.6, 24.94, -0.01105625
CTUN, 22576, 0, 0, 0, 0, -0.17, 0.28, 0.00, 0.00, 0, -82
ATT, 22576, 0.00, -0.08, 0.00, 1.58, 111.19, 111.19, 0.00, 0.00
EKF1, 22576, 0.61, 0.75, 0.00, 0, 0, 0, 0, 0, 0, 0.00, 0.00, 0.00
EKF2, 22576, 50, 0, 0, 0.00, 0.00, 0, 0, 0, 0, 0, 0
EKF3, 22576, 0.00, 0.00, 0.00, 0.00, 0.00, 0.00, 0, 0, 0, 0.00
EKF4, 22576, 0.00, 0.00, 0.00, 0.00, 0.00, 0.00, 0.00, 0, 0, 0, 0
RCIN, 22576, 1513, 1515, 1094, 1514, 968, 1235, 1934, 1094, 1514, 1514, 1514, 1514, 1514, 1514
RCOU, 22576, 1094, 1094, 1094, 1094, 0, 0, 0, 0
IMU, 22576, -0.0002233535, -0.0004864, -0.0002215076, -0.003222877, 0.2526258, -9.523974
IMU2, 22576, 0.001088409, -0.004559845, -0.004159094, 0.2290111, 0.1519749, -9.815378
IMU, 22596, 0.0002944395, 0.0001556203, -0.0005253116, -0.01972376, 0.2649835, -9.531294
IMU2, 22596, 0.00129951, -0.0008706376, -0.0001607816, 0.1109027, 0.1279593, -9.839055
IMU, 22615, -3.879704E-05, -4.879013E-05, -0.0005608741, 0.003217898, 0.2520671, -9.520622
IMU2, 22615, -0.001900202, -0.002116837, -0.004559324, 0.203082, 0.08856082, -9.851678
GPS, 1, 0, 0, 0, 99.99, -12.0730059, -77.0826488, -0.21, 89.20, 0.00, 0.00, 0, 22633
IMU, 22636, 0.0003519058, 9.294227E-05, -0.0003036503, -0.01580201, 0.2514558, -9.510748
IMU2, 22636, 0.002204041, -0.007478219, -0.00185879, 0.1834526, 0.09291255, -9.839553
IMU, 22656, 0.0005679578, -0.0006087273, 0.0008751061, -0.01886533, 0.2636822, -9.511776
IMU2, 22656, 0.001282086, 8.108467E-05, -0.0001391366, 0.1194725, 0.1430809, -9.823172
MAG, 22673, -75, -206, -73, -54, -7, -3, 0, 0, 0
MAG2, 22673, -143, -175, -90, 1, -279, 120, 0, 0, 0
BARO, 22676, 0.1720671, 100390.9, 24.96, 0.1543137
CTUN, 22676, 0, 0, 0, 0, -0.23, 0.17, 0.00, 0.00, 0, -83
ATT, 22676, 0.00, -0.08, 0.00, 1.57, 111.18, 111.18, 0.00, 0.01
EKF1, 22676, 0.61, 0.75, 0.00, 0, 0, 0, 0, 0, 0, 0.00, 0.00, 0.00
EKF2, 22676, 50, 0, 0, 0.00, 0.00, 0, 0, 0, 0, 0, 0
EKF3, 22676, 0.00, 0.00, 0.00, 0.00, 0.00, 0.00, 0, 0, 0, 0.00
EKF4, 22676, 0.00, 0.00, 0.00, 0.00, 0.00, 0.00, 0.00, 0, 0, 0, 0
RCIN, 22676, 1513, 1515, 1094, 1514, 968, 1235, 1934, 1094, 1514, 1514, 1514, 1514, 1514, 1514
RCOU, 22677, 1094, 1094, 1094, 1094, 0, 0, 0, 0
IMU, 22677, -0.0004309863, 0.0001034588, -0.001295008, -0.008058136, 0.2552387, -9.513687
IMU2, 22677, 0.003001815, -0.005279791, 0.0003516148, 0.1769315, 0.07914603, -9.900366
IMU, 22696, 0.0006101653, 3.751367E-06, -0.0002878495, -0.006586708, 0.2403114, -9.537392
IMU2, 22696, 0.0006654765, 0.001260657, -0.002799553, 0.1640645, 0.1171564, -9.811395
IMU, 22715, -0.0002930611, 0.0003911629, -0.0003088117, 0.0002514757, 0.2517063, -9.533666
IMU2, 22715, 0.0009111008, 0.002126664, -0.002161973, 0.1903563, 0.120839, -9.897899
IMU, 22736, -4.415587E-05, -0.0003653839, -0.0002492471, -0.00761156, 0.2476147, -9.524675
IMU2, 22736, 0.003529573, 0.005918965, 0.003061906, 0.1339552, 0.1521592, -9.77685
IMU, 22756, 0.0002117846, -2.031401E-05, -0.0006142268, -0.009948874, 0.2764824, -9.537759
IMU2, 22756, -0.000671301, -0.01094952, -0.004381695, 0.1171064, 0.1559862, -9.948829
MAG, 22773, -77, -205, -73, -54, -7, -3, 0, 0, 0
MAG2, 22773, -143, -175, -89, 1, -279, 120, 0, 0, 0
BARO, 22775, 0.2458101, 100390, 24.97, 0.003926653
CTUN, 22775, 0, 0, 0, 0, -0.29, 0.24, 0.00, 0.00, 0, -84
ATT, 22776, 0.00, -0.07, 0.00, 1.57, 111.17, 111.17, 0.00, 0.00
EKF1, 22776, 0.61, 0.75, 0.00, 0, 0, 0, 0, 0, 0, 0.00, 0.00, 0.00
EKF2, 22776, 50, 0, 0, 0.00, 0.00, 0, 0, 0, 0, 0, 0
EKF3, 22776, 0.00, 0.00, 0.00, 0.00, 0.00, 0.00, 0, 0, 0, 0.00
EKF4, 22776, 0.00, 0.00, 0.00, 0.00, 0.00, 0.00, 0.00, 0, 0, 0, 0
RCIN, 22776, 1513, 1515, 1094, 1514, 968, 1235, 1934, 1094, 1514, 1514, 1514, 1514, 1514, 1514
RCOU, 22776, 1094, 1094, 1094, 1094, 0, 0, 0, 0
IMU, 22776, 0.0004051477, 0.0003776699, 2.036057E-05, -0.01517964, 0.2549437, -9.534119
IMU2, 22776, 0.003161728, -0.008993693, -0.0003346341, 0.1622275, 0.1496332, -9.784128
IMU, 22796, -0.000294432, -0.0001051985, 0.0002297247, -0.01949873, 0.2513185, -9.528134
IMU2, 22796, 0.0004997533, 0.005652428, 5.463511E-05, 0.1266997, 0.09517384, -9.774923
IMU, 22816, 0.0002412386, 0.0002535433, -0.0003280742, -0.02851183, 0.2555444, -9.546096
IMU2, 22816, -0.001004856, -0.002378449, -0.00248281, 0.1838733, 0.09321058, -9.836178
GPS, 1, 0, 0, 0, 99.99, -12.0730059, -77.0826488, -0.32, 89.20, 0.00, 0.00, 0, 22833
IMU, 22836, 0.0005629286, 0.000519231, 0.0006952006, -0.02017096, 0.2360439, -9.540605
IMU2, 22836, 0.002810225, -0.005934525, -0.001930206, 0.1614743, 0.07059908, -9.852983
IMU, 22856, 5.305372E-05, 0.0005717017, -7.936265E-05, 0.008387167, 0.2436573, -9.520344
IMU2, 22856, -0.0006712098, -0.003902115, -0.003091419, 0.1449242, 0.1366495, -9.782492
MAG, 22873, -77, -206, -73, -54, -7, -3, 0, 0, 0
MAG2, 22873, -142, -174, -89, 1, -279, 120, 0, 0, 0
DU32, 7, 673240
CURR, 22873, 0, 0, 2406, 30, 5202, 1.604921
POWR, 22873, 5.20, 0.01, 1
BARO, 22876, 0.232154, 100390.1, 24.97, -0.1493997
CTUN, 22876, 0, 0, 0, 0, -0.35, 0.23, 0.00, 0.00, 0, -84
ATT, 22876, 0.00, -0.07, 0.00, 1.56, 111.17, 111.17, 0.00, 0.00
EKF1, 22876, 0.61, 0.75, 0.00, 0, 0, 0, 0, 0, 0, 0.00, 0.00, 0.00
EKF2, 22876, 50, 0, 0, 0.00, 0.00, 0, 0, 0, 0, 0, 0
EKF3, 22876, 0.00, 0.00, 0.00, 0.00, 0.00, 0.00, 0, 0, 0, 0.00
EKF4, 22876, 0.00, 0.00, 0.00, 0.00, 0.00, 0.00, 0.00, 0, 0, 0, 0
RCIN, 22876, 1513, 1515, 1094, 1514, 968, 1235, 1934, 1094, 1514, 1514, 1514, 1514, 1514, 1514
RCOU, 22877, 1094, 1094, 1094, 1094, 0, 0, 0, 0
IMU, 22877, 0.0005164668, 0.0002463013, 2.746377E-05, -0.01713963, 0.2357836, -9.543221
IMU2, 22877, -0.0002354197, -0.002231985, -0.003318347, 0.1826149, 0.1193699, -9.877264
IMU, 22895, 0.000763122, 0.0004125498, 9.929761E-05, 2.869591E-05, 0.2790958, -9.546813
IMU2, 22895, -0.0001332359, 0.0005269572, 0.003191035, 0.1876315, 0.1083088, -9.846453
IMU, 22916, -0.0001347978, -5.936623E-05, 0.0006297315, -0.01053932, 0.2702522, -9.526893
IMU2, 22916, 0.003533553, -0.003268372, 0.0008032655, 0.1652393, 0.1176541, -9.826903
IMU, 22936, -0.0001282357, 0.0004990101, 0.0009599477, -0.02000318, 0.2842593, -9.511488
IMU2, 22936, 0.000166079, -0.0005487353, -0.001526486, 0.1266127, 0.1064802, -9.790117
IMU, 22956, 6.462075E-05, -0.0005997345, -0.0001967177, -0.01379785, 0.2597119, -9.543077
IMU2, 22956, 0.007126154, -0.0001966543, -0.002605744, 0.1845801, 0.07754147, -9.852056
MAG, 22973, -78, -205, -73, -54, -7, -3, 0, 0, 0
MAG2, 22973, -142, -174, -87, 1, -279, 120, 0, 0, 0
BARO, 22975, 0.3195531, 100389.2, 24.98, -0.07226399
CTUN, 22975, 0, 0, 0, 0, -0.4, 0.31, 0.00, 0.00, 0, -84
RAD, 22976, 0, 0, 100, 39, 0, 0, 0
ATT, 22976, 0.00, -0.07, 0.00, 1.56, 111.16, 111.16, 0.00, 0.00
EKF1, 22976, 0.61, 0.75, 0.00, 0, 0, 0, 0, 0, 0, 0.00, 0.00, 0.00
EKF2, 22976, 50, 0, 0, 0.00, 0.00, 0, 0, 0, 0, 0, 0
EKF3, 22976, 0.00, 0.00, 0.00, 0.00, 0.00, 0.00, 0, 0, 0, 0.00
EKF4, 22976, 0.00, 0.00, 0.00, 0.00, 0.00, 0.00, 0.00, 0, 0, 0, 0
RCIN, 22976, 1513, 1515, 1094, 1514, 968, 1235, 1934, 1094, 1514, 1514, 1514, 1514, 1514, 1514
RCOU, 22977, 1094, 1094, 1094, 1094, 0, 0, 0, 0
IMU, 22977, 8.836016E-05, 0.000556659, 0.001225523, -0.0205332, 0.243663, -9.517339
IMU2, 22977, 0.0005676234, -0.001598388, -0.00194871, 0.1885978, 0.1214907, -9.911543
RAD, 22995, 0, 0, 100, 39, 0, 0, 0
IMU, 22996, 0.0009754635, 0.0008974858, -8.069258E-05, -0.01090355, 0.2413973, -9.516587
IMU2, 22996, -0.002328667, -0.002619062, -0.004066038, 0.1065977, 0.1062682, -9.933568
IMU, 23015, 0.001476664, 0.0001859553, 0.0005457839, -0.008611832, 0.248242, -9.534301
IMU2, 23015, 0.005081426, -0.001656532, 0.002680599, 0.1876749, 0.09899652, -9.845444
GPS, 1, 0, 0, 0, 99.99, -12.0730059, -77.0826488, -0.42, 89.20, 0.00, 0.00, 0, 23034
IMU, 23035, 0.0006620288, -3.253296E-05, -0.001282883, -0.01158408, 0.2615482, -9.525285
IMU2, 23035, 0.002851067, 0.001952972, -0.0009909231, 0.162065, 0.1330743, -9.892723
UBX1, 23054, 0, 82, 13, 1
IMU, 23055, 0.0006223693, 0.0002633333, -0.000532221, -0.003488611, 0.2708797, -9.529099
IMU2, 23055, 0.001660523, 9.326637E-05, -0.001494712, 0.256596, 0.1028688, -9.786175
UBX2, 23073, 0, -22, 121, 2, 123
MAG, 23073, -78, -206, -73, -54, -7, -3, 0, 0, 0
MAG2, 23073, -143, -174, -88, 1, -279, 120, 0, 0, 0
BARO, 23075, 0.232154, 100390.1, 25.00, 0.1323891
CTUN, 23075, 0, 0, 0, 0, -0.44, 0.23, 0.00, 0.00, 0, -85
ATT, 23076, 0.00, -0.06, 0.00, 1.56, 111.16, 111.16, 0.00, 0.00
EKF1, 23076, 0.61, 0.75, 0.00, 0, 0, 0, 0, 0, 0, 0.00, 0.00, 0.00
EKF2, 23076, 50, 0, 0, 0.00, 0.00, 0, 0, 0, 0, 0, 0
EKF3, 23076, 0.00, 0.00, 0.00, 0.00, 0.00, 0.00, 0, 0, 0, 0.00
EKF4, 23076, 0.00, 0.00, 0.00, 0.00, 0.00, 0.00, 0.00, 0, 0, 0, 0
RCIN, 23076, 1513, 1515, 1094, 1514, 968, 1235, 1934, 1094, 1514, 1514, 1514, 1514, 1514, 1514
RCOU, 23076, 1094, 1094, 1094, 1094, 0, 0, 0, 0
IMU, 23076, 0.001136655, -0.0004133284, -0.0001803748, -0.0007874183, 0.2526976, -9.530319
IMU2, 23076, 0.003107004, -0.005640119, 0.002926694, 0.1907383, 0.09952283, -9.804256
IMU, 23095, 0.0002620257, 0.0001216084, 0.0002940334, -0.01457088, 0.2404492, -9.522956
IMU2, 23095, 0.004194593, 0.009852998, 0.004524994, 0.1955248, 0.1318648, -9.841741
IMU, 23115, 3.936142E-05, 0.0003645867, 0.0004990268, -0.02377669, 0.258593, -9.523894
IMU2, 23115, -0.00196112, -0.007863212, -0.004153183, 0.1656566, 0.1376526, -9.811185
IMU, 23136, -0.0008157603, -0.0003544576, -0.0007448476, -0.006894305, 0.2441985, -9.526453
IMU2, 23136, -0.001752475, 0.00282751, 0.004552174, 0.1167785, 0.1271102, -9.824924
IMU, 23155, -0.0009976346, -0.0003450885, -0.000112202, -0.00553846, 0.2539982, -9.552849
IMU2, 23155, -0.001436092, -0.003519535, -0.001973218, 0.1736768, 0.1491811, -9.835711
MAG, 23174, -80, -205, -73, -54, -7, -3, 0, 0, 0
MAG2, 23174, -142, -175, -87, 1, -279, 120, 0, 0, 0
BARO, 23176, 0.2130354, 100390.4, 25.00, 0.1799851
CTUN, 23176, 0, 0, 0, 0, -0.49, 0.21, 0.00, 0.00, 0, -85
ATT, 23176, 0.00, -0.06, 0.00, 1.56, 111.16, 111.16, 0.00, 0.00
EKF1, 23176, 0.61, 0.75, 0.00, 0, 0, 0, 0, 0, 0, 0.00, 0.00, 0.00
EKF2, 23176, 50, 0, 0, 0.00, 0.00, 0, 0, 0, 0, 0, 0
EKF3, 23176, 0.00, 0.00, 0.00, 0.00, 0.00, 0.00, 0, 0, 0, 0.00
EKF4, 23176, 0.00, 0.00, 0.00, 0.00, 0.00, 0.00, 0.00, 0, 0, 0, 0
RCIN, 23176, 1513, 1515, 1094, 1514, 968, 1235, 1934, 1094, 1514, 1514, 1514, 1514, 1514, 1514
RCOU, 23177, 1094, 1094, 1094, 1094, 0, 0, 0, 0
IMU, 23177, -0.0005354043, 0.0008280575, 0.0001174472, -0.001641896, 0.2560569, -9.542069
IMU2, 23177, -0.004599152, -0.001239873, -0.002112221, 0.1440055, 0.116982, -9.880065
IMU, 23195, 5.098991E-05, -0.0002291389, 0.0006101113, -0.02416497, 0.2518046, -9.546777
IMU2, 23195, 0.004786422, -0.0006378554, 0.001897931, 0.1615907, 0.1098889, -9.82097
IMU, 23216, -0.0004126914, 9.467453E-05, 0.001009606, -0.01183768, 0.2493536, -9.549397
IMU2, 23216, -0.002827948, -0.004986219, -0.002494807, 0.1535865, 0.1402589, -9.815457
GPS, 1, 0, 0, 0, 99.99, -12.0730059, -77.0826488, -0.51, 89.20, 0.00, 0.00, 0, 23234
IMU, 23236, 0.0001657605, -0.0003057718, -2.996903E-05, -0.00741509, 0.2390513, -9.542417
IMU2, 23236, 0.002533354, 0.007776864, 0.000879165, 0.1921082, 0.103741, -9.848898
IMU, 23257, 0.0011298, 0.0006906167, -0.0005930522, -0.009864978, 0.2442506, -9.538571
IMU2, 23257, 0.004410004, 0.00183057, -0.001487588, 0.117087, 0.1043135, -9.855415
MAG, 23273, -81, -205, -72, -54, -7, -3, 0, 0, 0
MAG2, 23273, -142, -175, -87, 1, -279, 120, 0, 0, 0
BARO, 23275, 0.3168219, 100389.2, 25.01, 0.005348251
CTUN, 23275, 0, 0, 0, 0, -0.53, 0.31, 0.00, 0.00, 0, -85
ATT, 23276, 0.00, -0.05, 0.00, 1.56, 111.16, 111.16, 0.00, 0.00
EKF1, 23276, 0.61, 0.75, 0.00, 0, 0, 0, 0, 0, 0, 0.00, 0.00, 0.00
EKF2, 23276, 50, 0, 0, 0.00, 0.00, 0, 0, 0, 0, 0, 0
EKF3, 23276, 0.00, 0.00, 0.00, 0.00, 0.00, 0.00, 0, 0, 0, 0.00
EKF4, 23276, 0.00, 0.00, 0.00, 0.00, 0.00, 0.00, 0.00, 0, 0, 0, 0
RCIN, 23276, 1513, 1515, 1094, 1514, 968, 1235, 1934, 1094, 1514, 1514, 1514, 1514, 1514, 1514
RCOU, 23276, 1094, 1094, 1094, 1094, 0, 0, 0, 0
IMU, 23276, -0.0003646985, 0.0005156286, -0.0002576895, 0.008574862, 0.239111, -9.52495
IMU2, 23276, 0.003308956, -0.005079776, 0.00243001, 0.09780049, 0.1561849, -9.862209
IMU, 23296, -0.0002576876, 5.364418E-07, -0.0005548112, -0.02928149, 0.2520282, -9.560969
IMU2, 23296, -0.002096782, -0.002904754, -0.003316483, 0.09771907, 0.1340725, -9.755063
IMU, 23315, -0.0009747259, 0.0001021288, -0.00105404, -0.01332022, 0.2603154, -9.546437
IMU2, 23315, 0.007171521, 0.003376622, 0.002380314, 0.03869283, 0.08035171, -9.845385
IMU, 23335, -0.0002937727, 0.0001243427, -0.0006315969, -0.01480932, 0.2672879, -9.52746
IMU2, 23335, -0.0007372154, -0.002141114, 0.001549117, 0.1074198, 0.1363723, -9.79761
IMU, 23356, 0.0007054247, 4.659593E-05, -0.0005712584, -0.01110272, 0.2692315, -9.534393
IMU2, 23356, 0.004522821, -0.002335139, 0.0008632676, 0.1272923, 0.127094, -9.888494
MAG, 23373, -78, -206, -73, -54, -7, -3, 0, 0, 0
MAG2, 23374, -143, -175, -89, 1, -279, 120, 0, 0, 0
BARO, 23375, 0.2840472, 100389.6, 25.03, -0.03292748
CTUN, 23375, 0, 0, 0, 0, -0.57, 0.28, 0.00, 0.00, 0, -85
ATT, 23376, 0.00, -0.05, 0.00, 1.56, 111.16, 111.16, 0.00, 0.00
EKF1, 23376, 0.61, 0.75, 0.00, 0, 0, 0, 0, 0, 0, 0.00, 0.00, 0.00
EKF2, 23376, 50, 0, 0, 0.00, 0.00, 0, 0, 0, 0, 0, 0
EKF3, 23376, 0.00, 0.00, 0.00, 0.00, 0.00, 0.00, 0, 0, 0, 0.00
EKF4, 23376, 0.00, 0.00, 0.00, 0.00, 0.00, 0.00, 0.00, 0, 0, 0, 0
RCIN, 23376, 1513, 1515, 1094, 1514, 968, 1235, 1934, 1094, 1514, 1514, 1514, 1514, 1514, 1514
RCOU, 23376, 1094, 1094, 1094, 1094, 0, 0, 0, 0
IMU, 23376, 0.0007187929, 0.0001160987, -0.0004617283, -0.007986454, 0.2568244, -9.525114
IMU2, 23376, 8.822884E-05, -0.00392415, -0.0012665, 0.1000594, 0.1335586, -9.793119
IMU, 23396, -0.000136137, 0.001074415, -0.001107296, -0.004657619, 0.2406601, -9.546197
IMU2, 23396, -0.002134351, -0.0004711077, -0.003144795, 0.2062703, 0.1384794, -9.808048
IMU, 23415, 0.0002542771, -8.608401E-05, 0.0008824188, -0.00297367, 0.250277, -9.55688
IMU2, 23415, 0.002627319, 0.0008462146, -0.001713347, 0.1399007, 0.05984402, -9.857957
GPS, 1, 0, 0, 0, 99.99, -12.0730059, -77.0826488, -0.59, 89.20, 0.00, 0.00, 0, 23433
IMU, 23436, -0.0003952533, -0.0001002252, 0.0009210194, 0.0005318932, 0.2655328, -9.570332
IMU2, 23436, 0.002089219, 0.002876408, -0.0001614117, 0.1216455, 0.1328357, -9.77599
IMU, 23456, 0.0004459117, 0.001190152, 0.0003412897, -0.0158467, 0.2658625, -9.51621
IMU2, 23456, -0.003966508, -0.0007741898, -0.0004432083, 0.1618105, 0.09610355, -9.730858
MAG, 23474, -76, -205, -73, -54, -7, -3, 0, 0, 0
MAG2, 23474, -143, -175, -90, 1, -279, 120, 0, 0, 0
BARO, 23476, 0.2840472, 100389.6, 25.04, 0.1094934
CTUN, 23476, 0, 0, 0, 0, -0.6, 0.28, 0.00, 0.00, 0, -85
ATT, 23476, 0.00, -0.05, 0.00, 1.55, 111.16, 111.16, 0.00, 0.01
EKF1, 23476, 0.61, 0.75, 0.00, 0, 0, 0, 0, 0, 0, 0.00, 0.00, 0.00
EKF2, 23476, 50, 0, 0, 0.00, 0.00, 0, 0, 0, 0, 0, 0
EKF3, 23476, 0.00, 0.00, 0.00, 0.00, 0.00, 0.00, 0, 0, 0, 0.00
EKF4, 23476, 0.00, 0.00, 0.00, 0.00, 0.00, 0.00, 0.00, 0, 0, 0, 0
RCIN, 23476, 1513, 1515, 1094, 1514, 968, 1235, 1934, 1094, 1514, 1514, 1514, 1514, 1514, 1514
RCOU, 23477, 1094, 1094, 1094, 1094, 0, 0, 0, 0
IMU, 23477, 0.000345191, 0.001167491, 0.0004776148, -0.01288405, 0.2527569, -9.547149
IMU2, 23477, 0.006133178, -0.00689657, -0.001001781, 0.1822571, 0.1680337, -9.753446
IMU, 23496, 0.0002231617, 0.0005469769, -0.0001677666, -0.001236856, 0.253722, -9.527784
IMU2, 23496, 0.002008524, -0.0009061173, -0.001886313, 0.16259, 0.1111553, -9.810591
IMU, 23516, 0.001059743, 0.0006391108, 0.001517099, -0.01603329, 0.2682327, -9.529411
IMU2, 23516, 0.0008024294, -0.003066022, -0.00165505, 0.145605, 0.1285942, -9.909564
IMU, 23536, 4.11123E-05, 0.0002584644, 0.001066202, -0.01162782, 0.2318002, -9.520249
IMU2, 23536, 0.005465448, -0.005349722, -0.001248498, 0.09964812, 0.07036674, -9.736935
IMU, 23556, 3.749505E-06, -0.0001011863, -0.00040235, -0.01918226, 0.2475966, -9.539688
IMU2, 23556, -0.003966931, -0.00190036, -0.001650191, 0.1473091, 0.1082913, -9.83781
MAG, 23573, -77, -205, -73, -54, -7, -3, 0, 0, 0
MAG2, 23573, -143, -175, -88, 1, -279, 120, 0, 0, 0
BARO, 23576, 0.2840472, 100389.6, 25.05, 0.1684129
CTUN, 23576, 0, 0, 0, 0, -0.64, 0.28, 0.00, 0.00, 0, -85
ATT, 23576, 0.00, -0.05, 0.00, 1.55, 111.15, 111.15, 0.00, 0.00
EKF1, 23576, 0.61, 0.75, 0.00, 0, 0, 0, 0, 0, 0, 0.00, 0.00, 0.00
EKF2, 23576, 50, 0, 0, 0.00, 0.00, 0, 0, 0, 0, 0, 0
EKF3, 23576, 0.00, 0.00, 0.00, 0.00, 0.00, 0.00, 0, 0, 0, 0.00
EKF4, 23576, 0.00, 0.00, 0.00, 0.00, 0.00, 0.00, 0.00, 0, 0, 0, 0
RCIN, 23576, 1513, 1515, 1094, 1514, 968, 1235, 1934, 1094, 1514, 1514, 1514, 1514, 1514, 1514
RCOU, 23576, 1094, 1094, 1094, 1094, 0, 0, 0, 0
IMU, 23576, -0.0003092401, 1.601875E-05, -3.34084E-05, -0.006440042, 0.2419806, -9.54261
IMU2, 23576, -0.004567582, -0.0009045228, -0.002736088, 0.1252168, 0.113072, -9.743674
IMU, 23595, 0.0007926486, 0.0009025037, -0.001221831, -0.0288435, 0.2683099, -9.517438
IMU2, 23595, 0.004561391, -0.001994211, 0.002136055, 0.07792473, 0.1374173, -9.858908
IMU, 23616, 0.0002138279, -0.0003517941, 0.0007372089, -0.01686689, 0.2510875, -9.575781
IMU2, 23616, 0.0002673967, -0.005291436, -0.002771248, 0.1255115, 0.1246066, -9.79723
GPS, 1, 0, 0, 0, 99.99, -12.0730059, -77.0826488, -0.66, 89.20, 0.00, 0.00, 0, 23634
IMU, 23636, -0.0004547574, 3.316253E-05, 0.0002432326, -0.01320797, 0.2543984, -9.53599
IMU2, 23636, 0.003348866, -0.001757964, -0.0007279721, 0.09086323, 0.134166, -9.793558
IMU, 23656, -0.0005708728, -0.0002033748, 0.0007798942, -0.007142292, 0.2613277, -9.527511
IMU2, 23656, 0.006804528, -0.005632892, -0.005470722, 0.1139971, 0.1228431, -9.816326
MAG, 23674, -75, -205, -73, -54, -7, -3, 0, 0, 0
MAG2, 23674, -143, -175, -90, 1, -279, 120, 0, 0, 0
BARO, 23675, 0.2594662, 100389.9, 25.06, 0.04979203
CTUN, 23676, 0, 0, 0, 0, -0.67, 0.25, 0.00, 0.00, 0, -85
ATT, 23676, 0.00, -0.04, 0.00, 1.54, 111.14, 111.14, 0.00, 0.01
EKF1, 23676, 0.61, 0.75, 0.00, 0, 0, 0, 0, 0, 0, 0.00, 0.00, 0.00
EKF2, 23676, 50, 0, 0, 0.00, 0.00, 0, 0, 0, 0, 0, 0
EKF3, 23676, 0.00, 0.00, 0.00, 0.00, 0.00, 0.00, 0, 0, 0, 0.00
EKF4, 23676, 0.00, 0.00, 0.00, 0.00, 0.00, 0.00, 0.00, 0, 0, 0, 0
RCIN, 23676, 1513, 1515, 1094, 1514, 968, 1235, 1934, 1094, 1514, 1514, 1514, 1514, 1514, 1514
RCOU, 23676, 1094, 1094, 1094, 1094, 0, 0, 0, 0
IMU, 23676, 0.0002254453, 0.0005990937, -0.00153278, -0.007755993, 0.2607134, -9.534349
IMU2, 23676, -0.004101623, -0.001768876, 0.003129515, 0.1549783, 0.1063889, -9.816174
IMU, 23696, -0.0002379585, 0.0001814589, -0.0006727837, -0.003547782, 0.2584711, -9.568551
IMU2, 23696, -0.0009159409, -0.007411666, -0.002812343, 0.08965147, 0.08746696, -9.876803
IMU, 23716, -0.0003445745, 0.000520546, 0.0003811, -0.02568276, 0.2468019, -9.532116
IMU2, 23716, 0.004395718, -0.002339605, -0.003684913, 0.1666623, 0.1245221, -9.883397
IMU, 23736, 0.0004554838, 1.694262E-05, -0.001078138, -0.02256569, 0.2471295, -9.510592
IMU2, 23736, 0.0007514423, -0.004264954, -0.001925698, 0.1210991, 0.09724879, -9.765856
IMU, 23756, 0.0007787868, -0.0005280264, -0.0003722198, -0.00446124, 0.2336327, -9.564746
IMU2, 23756, 0.003609056, 0.002247728, -0.001077172, 0.08716714, 0.08492219, -9.837146
MAG, 23773, -77, -205, -73, -54, -7, -3, 0, 0, 0
MAG2, 23773, -142, -175, -88, 1, -279, 120, 0, 0, 0
BARO, 23775, 0.2458101, 100390, 25.08, -0.05958295
CTUN, 23775, 0, 0, 0, 0, -0.7, 0.24, 0.00, 0.00, 0, -85
ATT, 23776, 0.00, -0.04, 0.00, 1.54, 111.14, 111.14, 0.00, 0.00
EKF1, 23776, 0.61, 0.75, 0.00, 0, 0, 0, 0, 0, 0, 0.00, 0.00, 0.00
EKF2, 23776, 50, 0, 0, 0.00, 0.00, 0, 0, 0, 0, 0, 0
EKF3, 23776, 0.00, 0.00, 0.00, 0.00, 0.00, 0.00, 0, 0, 0, 0.00
EKF4, 23776, 0.00, 0.00, 0.00, 0.00, 0.00, 0.00, 0.00, 0, 0, 0, 0
RCIN, 23776, 1513, 1515, 1094, 1514, 968, 1235, 1934, 1094, 1514, 1514, 1514, 1514, 1514, 1514
RCOU, 23776, 1094, 1094, 1094, 1094, 0, 0, 0, 0
IMU, 23776, 0.0001839288, -4.516542E-05, 0.0004466604, -0.003108216, 0.2433538, -9.564944
IMU2, 23776, 0.001273967, -0.004896335, 0.00256798, 0.1577972, 0.09727144, -9.849677
IMU, 23795, 0.0002333224, 0.0004660971, -0.0007780418, -0.01974894, 0.2654328, -9.553698
IMU2, 23795, 0.005504245, -0.002877496, -0.002393063, 0.1399201, 0.08387733, -9.832397
IMU, 23816, 0.0002154298, 0.0004816987, -0.00114698, -0.02674389, 0.2471368, -9.543038
IMU2, 23816, 0.001648845, -0.0007592328, -0.002941468, 0.1709335, 0.1969413, -9.776566
GPS, 1, 0, 0, 0, 99.99, -12.0730059, -77.0826488, -0.72, 89.20, 0.00, 0.00, 0, 23833
IMU, 23836, -0.000346832, 0.0004007444, -0.0001902115, -0.003560137, 0.26143, -9.558072
IMU2, 23836, 0.001080433, 0.004483771, -0.002304123, 0.1841987, 0.1785413, -9.755045
IMU, 23856, 0.0004899837, -0.0004612096, 0.0007567331, -0.002219662, 0.2332965, -9.540005
IMU2, 23856, -0.0009363173, 0.00471659, 0.001740428, 0.1390147, 0.1212885, -9.813951
MAG, 23873, -76, -205, -73, -54, -7, -3, 0, 0, 0
MAG2, 23873, -142, -175, -89, 1, -279, 120, 0, 0, 0
DU32, 7, 673240
CURR, 23873, 0, 0, 2400, 36, 5211, 1.701372
POWR, 23873, 5.21, 0.01, 1
BARO, 23875, 0.256735, 100389.9, 25.08, -0.1040093
CTUN, 23875, 0, 0, 0, 0, -0.73, 0.25, 0.00, 0.00, 0, -84
ATT, 23876, 0.00, -0.03, 0.00, 1.54, 111.13, 111.13, 0.00, 0.00
EKF1, 23876, 0.61, 0.75, 0.00, 0, 0, 0, 0, 0, 0, 0.00, 0.00, 0.00
EKF2, 23876, 50, 0, 0, 0.00, 0.00, 0, 0, 0, 0, 0, 0
EKF3, 23876, 0.00, 0.00, 0.00, 0.00, 0.00, 0.00, 0, 0, 0, 0.00
EKF4, 23876, 0.00, 0.00, 0.00, 0.00, 0.00, 0.00, 0.00, 0, 0, 0, 0
RCIN, 23876, 1513, 1515, 1094, 1514, 968, 1235, 1934, 1094, 1514, 1514, 1514, 1514, 1514, 1514
RCOU, 23876, 1094, 1094, 1094, 1094, 0, 0, 0, 0
IMU, 23876, -0.0002955198, 0.0002986938, -0.0006020758, -0.01335169, 0.2406194, -9.515498
IMU2, 23876, 0.002601014, -0.01015437, -0.002416868, 0.1907165, 0.1158545, -9.825966
IMU, 23896, -0.0008576028, -0.0001859888, 8.879323E-05, -0.01237002, 0.2469182, -9.567073
IMU2, 23896, 6.024912E-05, 0.007136863, 0.001474315, 0.1281753, 0.1439495, -9.944488
RAD, 23915, 0, 0, 100, 48, 0, 0, 0
RAD, 23916, 0, 0, 100, 48, 0, 0, 0
IMU, 23916, 6.001815E-05, 0.0004495271, -1.690537E-05, -0.01822117, 0.2527866, -9.558637
IMU2, 23916, -0.004225942, -0.00213737, 0.00113163, 0.204674, 0.100652, -9.851558
IMU, 23936, 0.0001772586, 0.0008450709, -0.0002551787, -0.02827146, 0.2747405, -9.526153
IMU2, 23936, 0.001194865, 0.002212394, -0.001279348, 0.1916826, 0.1407819, -9.714891
IMU, 23956, -0.0001641698, 0.0004556328, 0.0002406957, -0.01182708, 0.2524362, -9.526775
IMU2, 23956, 0.001338405, 0.0004021972, -0.0008589628, 0.1194022, 0.09756482, -9.844876
MAG, 23974, -77, -205, -72, -54, -7, -3, 0, 0, 0
MAG2, 23974, -142, -175, -88, 1, -279, 120, 0, 0, 0
BARO, 23976, 0.2703911, 100389.7, 25.09, -0.09693965
CTUN, 23976, 0, 0, 0, 0, -0.76, 0.27, 0.00, 0.00, 0, -84
ATT, 23976, 0.00, -0.04, 0.00, 1.53, 111.12, 111.12, 0.00, 0.00
EKF1, 23976, 0.61, 0.75, 0.00, 0, 0, 0, 0, 0, 0, 0.00, 0.00, 0.00
EKF2, 23976, 50, 0, 0, 0.00, 0.00, 0, 0, 0, 0, 0, 0
EKF3, 23976, 0.00, 0.00, 0.00, 0.00, 0.00, 0.00, 0, 0, 0, 0.00
EKF4, 23976, 0.00, 0.00, 0.00, 0.00, 0.00, 0.00, 0.00, 0, 0, 0, 0
RCIN, 23976, 1513, 1515, 1094, 1514, 968, 1235, 1934, 1094, 1514, 1514, 1514, 1514, 1514, 1514
RCOU, 23977, 1094, 1094, 1094, 1094, 0, 0, 0, 0
IMU, 23977, -0.0003748015, 0.0004380792, 0.0007805936, -0.004779622, 0.2658588, -9.575294
IMU2, 23977, -0.003722482, -0.004082516, -0.0004397796, 0.08476675, 0.1367058, -9.851674
IMU, 23996, -0.0005291738, 0.0008658953, 0.0007665837, -0.02190238, 0.2618453, -9.529902
IMU2, 23996, 0.0002280101, 0.006363135, -0.00445857, 0.1171213, 0.09825397, -9.857114
IMU, 24016, -0.0001259074, -7.915497E-05, 0.000510104, -0.03121395, 0.2635987, -9.536956
IMU2, 24016, -0.0007082466, 0.002996683, -0.002079011, 0.1047034, 0.120844, -9.846165
GPS, 1, 0, 0, 0, 99.99, -12.0730059, -77.0826488, -0.77, 89.20, 0.00, 0.00, 0, 24033
IMU, 24035, 0.0001136996, 0.000178393, 3.447011E-05, -0.02668458, 0.2494772, -9.551935
IMU2, 24035, -0.002209797, -0.0009769425, -0.001820275, 0.140166, 0.06908524, -9.87801
EV, 15
IMU, 24056, -0.0005401038, 0.0001150928, -0.0005828077, -0.02262853, 0.244559, -9.538687
IMU2, 24056, 0.004219105, -0.0007846504, -0.003679062, 0.09263718, 0.1013454, -9.848163
MAG, 24074, -76, -206, -73, -54, -7, -3, 0, 0, 0
MAG2, 24074, -142, -174, -89, 1, -279, 120, 0, 0, 0
BARO, 24075, 0.3468654, 100388.9, 25.10, -0.001521854
CTUN, 24075, 155, 0, 163, 0, -0.78, 0.34, 0.00, 0.00, 0, -84
ATT, 24076, 0.00, -0.04, 0.00, 1.54, 111.12, 111.12, 0.00, 0.01
EKF1, 24076, 0.61, 0.75, 0.00, 0, 0, 0, 0, 0, 0, 0.00, 0.00, 0.00
EKF2, 24076, 50, 0, 0, 0.00, 0.00, 0, 0, 0, 0, 0, 0
EKF3, 24076, 0.00, 0.00, 0.00, 0.00, 0.00, 0.00, 0, 0, 0, 0.00
EKF4, 24076, 0.00, 0.00, 0.00, 0.00, 0.00, 0.00, 0.00, 0, 0, 0, 0
RCIN, 24076, 1513, 1515, 1148, 1514, 968, 1235, 1934, 1094, 1514, 1514, 1514, 1514, 1514, 1514
RCOU, 24076, 1205, 1221, 1205, 1221, 0, 0, 0, 0
IMU, 24076, -0.0003974885, -1.844764E-05, -2.24486E-05, -0.01562952, 0.2559678, -9.548453
IMU2, 24076, 0.0004422469, -0.0006085299, -0.002445309, 0.1875957, 0.1089833, -9.75855
IMU, 24095, -0.004378803, -0.000456471, -0.001986695, 0.09037286, 0.2035865, -9.540102
IMU2, 24095, -0.005994252, -0.01029336, 0.0001619884, 0.1110387, 0.1560426, -9.742281
IMU, 24116, -0.001345966, 0.0006830469, 0.002885034, 0.1604811, 0.1115379, -9.534102
IMU2, 24116, -0.008823138, -0.006923467, -0.008155773, 0.2953237, -0.01223874, -9.805419
IMU, 24136, -0.009569545, -0.002902642, 0.001132293, 0.09751309, 0.3315893, -9.592321
IMU2, 24136, -0.01273863, -0.01151077, -0.0008906736, 0.2334305, 0.1713327, -9.936871
IMU, 24156, -0.002611786, -0.001815643, -0.0008009393, -0.07362217, 0.3285736, -9.522522
IMU2, 24156, 0.001471091, -0.003349788, -0.0002957183, 0.1240463, 0.1829146, -9.871519
MAG, 24173, -79, -206, -72, -54, -7, -3, 0, 0, 0
MAG2, 24173, -142, -186, -101, 1, -279, 120, 0, 0, 0
BARO, 24176, 0.2703911, 100389.7, 25.11, 0.1421257
CTUN, 24176, 163, 0, 174, 0, -0.8, 0.27, 0.00, 0.00, 0, -83
ATT, 24176, 0.00, -0.04, 0.00, 1.52, 111.12, 111.10, 0.00, 0.00
EKF1, 24176, 0.61, 0.75, 0.00, 0, 0, 0, 0, 0, 0, 0.00, 0.00, 0.00
EKF2, 24176, 50, 0, 0, 0.00, 0.00, 0, 0, 0, 0, 0, 0
EKF3, 24176, 0.00, 0.00, 0.00, 0.00, 0.00, 0.00, 0, 0, 0, 0.00
EKF4, 24176, 0.00, 0.00, 0.00, 0.00, 0.00, 0.00, 0.00, 0, 0, 0, 0
RCIN, 24176, 1513, 1515, 1155, 1514, 968, 1235, 1934, 1094, 1514, 1514, 1514, 1514, 1514, 1514
RCOU, 24176, 1232, 1249, 1232, 1249, 0, 0, 0, 0
IMU, 24176, -0.002111221, 0.0003462806, -0.003816767, -0.0318836, 0.3250549, -9.577765
IMU2, 24176, 0.00503484, -0.0004929192, -0.005049911, 0.1063246, 0.1602584, -9.90695
IMU, 24196, -3.731623E-05, 0.001164068, -0.001181041, -0.1144561, 0.2650027, -9.52371
IMU2, 24196, -0.001967173, -0.002239391, -0.003725838, 0.08175063, 0.1150484, -9.882152
IMU, 24216, 0.0005531814, 0.001199268, 0.000759583, 0.07108883, 0.2988406, -9.505756
IMU2, 24216, 0.002790255, -0.0005408339, -0.002280869, 0.1973497, 0.1559753, -9.813128
GPS, 1, 0, 0, 0, 99.99, -12.0730059, -77.0826488, -0.81, 89.20, 0.00, 0.00, 0, 24234
IMU, 24236, -0.0005816352, -0.001631774, 0.00370366, -0.002993802, 0.2120855, -9.56467
IMU2, 24236, 0.004156586, -0.009156227, 0.004020714, 0.1404672, 0.08462441, -9.819228
IMU, 24256, 0.001479052, 0.001708813, 0.0003307918, 0.0751608, 0.2359475, -9.52344
IMU2, 24256, 0.003105352, -0.004853427, -0.0008810482, 0.2010098, 0.04558289, -9.848967
MAG, 24274, -81, -205, -71, -54, -7, -3, 0, 0, 0
MAG2, 24274, -144, -183, -94, 1, -279, 120, 0, 0, 0
BARO, 24276, 0.2184979, 100390.3, 25.13, 0.1549574
CTUN, 24276, 179, 0, 195, 0, -0.82, 0.21, 0.00, 0.00, 0, -83
ATT, 24276, 0.00, -0.03, 0.00, 1.52, 111.12, 111.10, 0.00, 0.01
EKF1, 24276, 0.61, 0.75, 0.00, 0, 0, 0, 0, 0, 0, 0.00, 0.00, 0.00
EKF2, 24276, 50, 0, 0, 0.00, 0.00, 0, 0, 0, 0, 0, 0
EKF3, 24276, 0.00, 0.00, 0.00, 0.00, 0.00, 0.00, 0, 0, 0, 0.00
EKF4, 24276, 0.00, 0.00, 0.00, 0.00, 0.00, 0.00, 0.00, 0, 0, 0, 0
RCIN, 24276, 1513, 1515, 1170, 1514, 968, 1235, 1934, 1094, 1514, 1514, 1514, 1514, 1514, 1514
RCOU, 24277, 1247, 1266, 1247, 1266, 0, 0, 0, 0
IMU, 24277, -0.002198748, -0.0005229786, 0.000228228, -0.06027661, 0.2381453, -9.52437
IMU2, 24277, -0.0003002612, 0.00208509, -0.002584929, 0.2022922, 0.08915854, -9.80509
IMU, 24295, -0.0007598307, 0.001630049, -0.002640661, -0.02828854, 0.2880207, -9.51474
IMU2, 24295, 0.001705549, 0.001494136, -0.004535012, 0.1230919, 0.170835, -9.895171
IMU, 24316, 0.0007714871, 0.00016132, -0.0008018389, -0.02643162, 0.2205604, -9.558969
IMU2, 24316, -0.003109241, -0.006471336, -0.006312298, 0.09626997, 0.08576834, -9.821255
IMU, 24336, -0.002114911, 0.001059603, 0.0008380609, -0.03601626, 0.2575055, -9.508034
IMU2, 24336, 0.004920458, -0.002125971, 0.0008108071, 0.07368016, 0.1498686, -9.820895
IMU, 24356, -0.0002117567, -0.001039866, 0.002450431, 0.02713588, 0.2749486, -9.549708
IMU2, 24356, 0.0003969427, 0.003137492, 0.0008663193, 0.2390426, 0.1685977, -9.834279
MAG, 24373, -82, -204, -71, -54, -7, -3, 0, 0, 0
MAG2, 24373, -144, -181, -93, 1, -279, 120, 0, 0, 0
BARO, 24376, 0.305897, 100389.3, 25.13, -0.0299319
CTUN, 24376, 180, 0, 196, 0, -0.84, 0.30, 0.00, 0.00, 0, -83
ATT, 24376, 0.00, -0.03, 0.00, 1.51, 111.12, 111.10, 0.00, 0.01
EKF1, 24376, 0.61, 0.75, 0.00, 0, 0, 0, 0, 0, 0, 0.00, 0.00, 0.00
EKF2, 24376, 50, 0, 0, 0.00, 0.00, 0, 0, 0, 0, 0, 0
EKF3, 24376, 0.00, 0.00, 0.00, 0.00, 0.00, 0.00, 0, 0, 0, 0.00
EKF4, 24376, 0.00, 0.00, 0.00, 0.00, 0.00, 0.00, 0.00, 0, 0, 0, 0
RCIN, 24376, 1513, 1515, 1171, 1514, 968, 1235, 1934, 1094, 1514, 1514, 1514, 1514, 1514, 1514
RCOU, 24376, 1250, 1269, 1252, 1267, 0, 0, 0, 0
IMU, 24376, -0.001615204, 0.0004974157, 0.001617315, -0.07053101, 0.2443324, -9.532452
IMU2, 24376, -0.002064105, -0.004032686, 0.003170377, 0.1045209, 0.09253156, -9.879914
IMU, 24396, 0.001940111, -0.0003860295, -9.077974E-05, 0.03210737, 0.2513263, -9.548659
IMU2, 24396, 0.005303318, -0.003319908, -0.007624825, 0.1790775, 0.163196, -9.864653
IMU, 24416, -0.001653824, 0.001285836, -0.003478821, -0.07082115, 0.2332544, -9.509407
IMU2, 24416, -0.001754107, -0.004544143, -0.006091882, 0.07381463, 0.1579297, -9.774447
GPS, 1, 0, 0, 0, 99.99, -12.0730059, -77.0826488, -0.85, 89.20, 0.00, 0.00, 0, 24434
IMU, 24436, 0.002991516, 0.001749616, -0.002875176, 0.008062866, 0.2133503, -9.525764
IMU2, 24436, 0.0004058778, -0.004172679, -0.00352953, 0.1053683, 0.1045188, -9.918672
IMU, 24456, -0.003272051, 0.0001333654, 0.0007013362, -0.001149479, 0.3188375, -9.552272
IMU2, 24456, -0.005456267, -0.008965161, -0.01090601, 0.1636033, 0.1741642, -9.85663
MAG, 24473, -81, -205, -70, -54, -7, -3, 0, 0, 0
MAG2, 24473, -144, -181, -93, 1, -279, 120, 0, 0, 0
BARO, 24476, 0.1693359, 100390.9, 25.15, -0.1960226
CTUN, 24476, 214, 0, 242, 0, -0.86, 0.16, 0.00, 0.00, 0, -82
ATT, 24476, 0.00, -0.03, 0.00, 1.50, 111.12, 111.09, 0.00, 0.01
EKF1, 24476, 0.61, 0.75, 0.00, 0, 0, 0, 0, 0, 0, 0.00, 0.00, 0.00
EKF2, 24476, 50, 0, 0, 0.00, 0.00, 0, 0, 0, 0, 0, 0
EKF3, 24476, 0.00, 0.00, 0.00, 0.00, 0.00, 0.00, 0, 0, 0, 0.00
EKF4, 24476, 0.00, 0.00, 0.00, 0.00, 0.00, 0.00, 0.00, 0, 0, 0, 0
RCIN, 24476, 1513, 1515, 1203, 1514, 968, 1235, 1934, 1094, 1514, 1514, 1514, 1514, 1514, 1514
RCOU, 24477, 1290, 1311, 1290, 1311, 0, 0, 0, 0
IMU, 24477, 0.0003951117, 0.0001608767, 0.001961621, -0.001166876, 0.2530686, -9.514449
IMU2, 24477, -0.003092471, 0.0009989925, 0.003168818, 0.1043555, 0.1026078, -9.790071
IMU, 24496, 0.0007474367, -1.379102E-05, 0.003381703, 0.005761314, 0.2267576, -9.551931
IMU2, 24496, 0.0007960498, -0.01517755, -0.002104564, 0.2212629, 0.05667651, -9.841662
IMU, 24516, 0.002869796, 0.0009540766, -0.0008624485, -0.06650759, 0.3132504, -9.592218
IMU2, 24516, 0.004238533, 0.0004780628, -0.003691007, 0.1192298, 0.1958795, -9.876632
IMU, 24536, -0.001746446, 0.0001922846, -0.002501296, -0.006653428, 0.2007309, -9.486251
IMU2, 24536, -0.00415809, -0.01255498, -0.00486279, 0.1860162, 0.09660506, -9.807581
IMU, 24556, -0.00164919, 0.002020758, -0.001673879, -0.01162137, 0.2645214, -9.527082
IMU2, 24556, -0.003003858, -0.002216727, -0.001458766, 0.2020234, 0.1463979, -9.814156
MAG, 24574, -81, -205, -71, -54, -7, -3, 0, 0, 0
MAG2, 24574, -145, -182, -95, 1, -279, 120, 0, 0, 0
BARO, 24576, 0.2758536, 100389.7, 25.16, -0.1616441
CTUN, 24576, 234, 0, 269, 0, -0.88, 0.27, 0.00, 0.00, 0, -82
ATT, 24576, 0.00, -0.03, 0.00, 1.49, 111.12, 111.08, 0.00, 0.00
EKF1, 24576, 0.61, 0.75, 0.00, 0, 0, 0, 0, 0, 0, 0.00, 0.00, 0.00
EKF2, 24576, 50, 0, 0, 0.00, 0.00, 0, 0, 0, 0, 0, 0
EKF3, 24576, 0.00, 0.00, 0.00, 0.00, 0.00, 0.00, 0, 0, 0, 0.00
EKF4, 24576, 0.00, 0.00, 0.00, 0.00, 0.00, 0.00, 0.00, 0, 0, 0, 0
RCIN, 24576, 1513, 1515, 1221, 1514, 968, 1235, 1934, 1094, 1514, 1514, 1514, 1514, 1514, 1514
RCOU, 24576, 1313, 1334, 1313, 1334, 0, 0, 0, 0
IMU, 24576, -0.001480881, -7.370114E-05, 0.0001275148, 0.02717749, 0.2998797, -9.538561
IMU2, 24576, 0.0057512, 0.001564078, 0.001913758, 0.1739888, 0.2172136, -9.886714
IMU, 24596, -0.001239184, -0.0004703477, 0.002667213, -0.03160018, 0.2663987, -9.510351
IMU2, 24596, -0.005656309, -0.003291585, 0.002620049, 0.1671571, 0.1635084, -9.75436
IMU, 24618, 0.001460247, 0.0004058704, 0.0009465283, -0.0667816, 0.2107487, -9.550056
IMU2, 24618, -0.001811762, -0.0007039681, -0.001076049, 0.1283209, 0.09858608, -9.870049
GPS, 1, 0, 0, 0, 99.99, -12.0730059, -77.0826488, -0.89, 89.20, 0.00, 0.00, 0, 24636
IMU, 24637, 0.0001016222, 0.0007578693, -0.0005080169, -0.007993151, 0.2453493, -9.544195
IMU2, 24637, 0.001196207, 0.006657679, -0.003393255, 0.1407998, 0.09498644, -9.942561
IMU, 24656, -0.002245896, -0.0008707941, -0.001734551, 0.002898652, 0.2572621, -9.525505
IMU2, 24656, -0.006384374, 7.519871E-05, -0.003467258, 0.1839579, 0.1441649, -9.88706
EV, 28
MAG, 24674, -79, -206, -71, -54, -7, -3, 0, 0, 0
MAG2, 24674, -145, -182, -99, 1, -279, 120, 0, 0, 0
BARO, 24676, 0.2212291, 100390.3, 25.17, -0.103289
CTUN, 24676, 269, 0, 315, 0, -0.89, 0.22, 0.00, 0.00, 0, -82
ATT, 24677, 0.00, -0.04, 0.00, 1.49, 111.12, 111.08, 0.00, 0.00
EKF1, 24677, 0.61, 0.75, 0.00, 0, 0, 0, 0, 0, 0, 0.00, 0.00, 0.00
EKF2, 24677, 50, 0, 0, 0.00, 0.00, 0, 0, 0, 0, 0, 0
EKF3, 24677, 0.00, 0.00, 0.00, 0.00, 0.00, 0.00, 0, 0, 0, 0.00
EKF4, 24677, 0.00, 0.00, 0.00, 0.00, 0.00, 0.00, 0.00, 0, 0, 0, 0
RCIN, 24677, 1513, 1515, 1254, 1514, 968, 1235, 1934, 1094, 1514, 1514, 1514, 1514, 1514, 1514
RCOU, 24677, 1354, 1375, 1354, 1375, 0, 0, 0, 0
IMU, 24677, -0.001683358, -4.71957E-05, -0.001866335, -0.008334737, 0.1845571, -9.487609
IMU2, 24677, 0.00121869, -0.003950268, -0.0060317, 0.129263, 0.0008325577, -9.809489
IMU, 24696, 0.002968701, 0.0008188263, 0.0005033743, -0.05303357, 0.2040906, -9.516759
IMU2, 24696, -0.000159042, -0.004236042, -0.002649954, 0.1096253, 0.04692066, -9.73002
IMU, 24716, 0.001988254, 0.000387121, 0.002292113, -0.02385443, 0.2197367, -9.498347
IMU2, 24716, 0.001730381, -0.004682727, -0.001740806, 0.01767087, 0.02709532, -9.79643
IMU, 24736, 0.001175784, 0.0002551526, 0.001288949, 0.01387667, 0.2048557, -9.526672
IMU2, 24736, 0.001328843, 0.0006020442, 0.001050848, 0.1927441, 0.09905684, -9.778687
IMU, 24757, -0.0003300421, -0.000744801, 0.000435574, 0.02113329, 0.1848617, -9.517673
IMU2, 24757, -0.001621385, -0.001247659, 0.003289631, 0.1590531, 0.07064497, -9.830832
MAG, 24774, -82, -205, -70, -54, -7, -3, 0, 0, 0
MAG2, 24774, -145, -184, -99, 1, -279, 120, 0, 0, 0
BARO, 24777, 0.3332092, 100389, 25.18, -0.0254115
CTUN, 24777, 302, 0, 360, 0, -0.91, 0.33, 0.00, 0.00, 0, -81
ATT, 24777, 0.00, -0.04, 0.00, 1.49, 111.12, 111.08, 0.00, 0.01
EKF1, 24777, 0.61, 0.75, 0.00, 0, 0, 0, 0, 0, 0, 0.00, 0.00, 0.00
EKF2, 24777, 50, 0, 0, 0.00, 0.00, 0, 0, 0, 0, 0, 0
EKF3, 24777, 0.00, 0.00, 0.00, 0.00, 0.00, 0.00, 0, 0, 0, 0.00
EKF4, 24777, 0.00, 0.00, 0.00, 0.00, 0.00, 0.00, 0.00, 0, 0, 0, 0
RCIN, 24777, 1513, 1515, 1285, 1514, 968, 1235, 1934, 1094, 1514, 1514, 1514, 1514, 1514, 1514
RCOU, 24778, 1393, 1417, 1395, 1414, 0, 0, 0, 0
IMU, 24778, -0.001174044, -0.000787463, -0.0006337194, -0.05269497, 0.2083848, -9.521206
IMU2, 24778, -0.006707418, -0.009738661, -0.008363813, 0.09581327, 0.1173879, -9.79621
IMU, 24797, -0.002838645, 0.0002278909, -0.001670785, -0.09901313, 0.2423202, -9.51625
IMU2, 24797, -0.008443086, -0.01501573, -0.007295947, -0.01068342, 0.1840639, -9.927563
IMU, 24817, -0.005132835, -0.001313306, -0.000587238, -0.1266999, 0.271524, -9.531762
IMU2, 24817, -0.0109886, -0.004746713, -0.003352478, 0.07278049, 0.1827248, -9.817318
GPS, 1, 0, 0, 0, 99.99, -12.0730059, -77.0826488, -0.92, 89.20, 0.00, 0.00, 0, 24837
IMU, 24837, -0.006192613, 0.0001298711, -0.0001874315, -0.07328098, 0.3134888, -9.540959
IMU2, 24837, -0.007928246, 0.0003733784, -0.009014038, -0.03411007, 0.2509334, -9.926046
IMU, 24857, -0.004660288, 0.001087427, -0.0004413771, -0.05354559, 0.3299602, -9.563826
IMU2, 24857, -0.00255652, 0.005702395, -0.00296094, 0.04151547, 0.2026664, -9.901633
MAG, 24875, -80, -205, -71, -54, -7, -3, 0, 0, 0
MAG2, 24875, -146, -186, -104, 1, -279, 120, 0, 0, 0
DU32, 7, 148856
CURR, 24875, 449, 2339, 2387, 357, 5191, 2.267037
POWR, 24875, 5.19, 0.01, 1
BARO, 24877, 0.1747983, 100390.8, 25.20, 0.1037883
CTUN, 24877, 399, 0, 489, 0, -0.92, 0.17, 0.00, 0.00, 0, -80
ATT, 24877, 0.00, -0.03, 0.00, 1.48, 111.12, 111.08, 0.00, 0.00
EKF1, 24877, 0.61, 0.75, 0.00, 0, 0, 0, 0, 0, 0, 0.00, 0.00, 0.00
EKF2, 24877, 50, 0, 0, 0.00, 0.00, 0, 0, 0, 0, 0, 0
EKF3, 24877, 0.00, 0.00, 0.00, 0.00, 0.00, 0.00, 0, 0, 0, 0.00
EKF4, 24877, 0.00, 0.00, 0.00, 0.00, 0.00, 0.00, 0.00, 0, 0, 0, 0
RCIN, 24877, 1513, 1515, 1375, 1514, 968, 1235, 1934, 1094, 1514, 1514, 1514, 1514, 1514, 1514
RCOU, 24878, 1471, 1497, 1471, 1497, 0, 0, 0, 0
IMU, 24878, -0.001011815, 0.001896281, -0.0001448616, -0.01401023, 0.2428459, -9.52883
IMU2, 24878, 0.001565329, 0.0003897324, -0.003123434, 0.09800029, 0.09337652, -9.819798
IMU, 24897, 0.0003985725, 0.0009710714, -0.003422661, -0.06045249, 0.2240251, -9.511036
IMU2, 24897, -0.001117195, -0.001740668, -0.008155841, 0.09713542, 0.1031182, -9.743914
IMU, 24916, -0.009508967, -0.002555633, -0.002877575, -0.07704258, 0.3250232, -9.547032
IMU2, 24916, -0.008625846, -0.003499646, -0.004851823, 0.0564456, 0.1972057, -9.79088
IMU, 24937, -0.01124057, -0.003067819, 0.001667006, -0.08838531, 0.4429539, -9.598608
IMU2, 24937, -0.0129568, -0.008307718, 0.001965713, 0.05279064, 0.2553384, -9.906199
IMU, 24957, 0.001698608, -5.868822E-05, 0.004707325, -0.04593604, 0.3393825, -9.533284
IMU2, 24957, 0.01153238, -0.009560395, 0.00310075, 0.0676657, 0.2076966, -9.850371
MAG, 24975, -79, -206, -72, -54, -7, -3, 0, 0, 0
MAG2, 24975, -149, -188, -114, 1, -279, 120, 0, 0, 0
BARO, 24977, 0.2594662, 100389.9, 25.20, 0.07601532
CTUN, 24977, 474, 0, 590, 0, -0.94, 0.25, 0.00, 0.00, 0, -80
ATT, 24977, 0.00, -0.02, 0.00, 1.47, 111.12, 111.07, 0.00, 0.00
EKF1, 24977, 0.61, 0.75, 0.00, 0, 0, 0, 0, 0, 0, 0.00, 0.00, 0.00
EKF2, 24977, 50, 0, 0, 0.00, 0.00, 0, 0, 0, 0, 0, 0
EKF3, 24977, 0.00, 0.00, 0.00, 0.00, 0.00, 0.00, 0, 0, 0, 0.00
EKF4, 24977, 0.00, 0.00, 0.00, 0.00, 0.00, 0.00, 0.00, 0, 0, 0, 0
RCIN, 24977, 1513, 1515, 1445, 1514, 968, 1235, 1934, 1094, 1514, 1514, 1514, 1514, 1514, 1514
RCOU, 24977, 1574, 1589, 1570, 1593, 0, 0, 0, 0
IMU, 24977, 0.007387973, 0.001727656, 0.002128833, 0.0358119, 0.2208932, -9.559666
IMU2, 24977, 0.01887525, -0.01221279, -0.004175531, 0.1697701, 0.08490419, -9.783737
IMU, 24997, 0.001838706, 0.002434082, 0.0006424431, 0.03403638, 0.1530385, -9.480869
IMU2, 24997, -0.001812164, 0.0004202425, -0.007612817, 0.1222674, 0.01122034, -9.791901
IMU, 25017, -0.0007677227, 0.001175664, -0.006380059, -0.03339867, 0.285637, -9.6068
IMU2, 25017, -0.004235564, 0.0003079772, -0.005733254, 0.2074287, 0.1263928, -9.894588
GPS, 1, 0, 0, 0, 99.99, -12.0730059, -77.0826488, -0.94, 89.20, 0.00, 0.00, 0, 25037
IMU, 25037, -0.004165329, 5.000457E-05, 0.003296014, 0.02290539, 0.2463408, -9.455594
IMU2, 25037, -0.005427817, -0.01124032, 0.005877065, 0.2703413, 0.1524754, -9.674651
UBX1, 25057, 0, 82, 8, 1
UBX2, 25057, 0, -24, 116, 6, 119
RAD, 25057, 0, 0, 100, 48, 0, 0, 0
RAD, 25057, 0, 0, 100, 48, 0, 0, 0
IMU, 25057, 0.00527323, 0.001705848, -0.004304478, -0.03134928, 0.2015079, -9.587847
IMU2, 25057, 0.005732791, -0.002847027, -0.01348587, 0.08598483, 0.08359778, -9.917756
MAG, 25074, -78, -205, -73, -54, -7, -3, 0, 0, 0
MAG2, 25074, -150, -190, -113, 1, -279, 120, 0, 0, 0
BARO, 25077, 0.232154, 100390.1, 25.22, -0.07456395
CTUN, 25077, 501, 0, 625, 0, -0.95, 0.23, 0.00, 0.00, 0, -79
ATT, 25077, 0.00, -0.03, 0.00, 1.45, 111.12, 111.06, 0.00, 0.00
EKF1, 25077, 0.61, 0.75, 0.00, 0, 0, 0, 0, 0, 0, 0.00, 0.00, 0.00
EKF2, 25077, 50, 0, 0, 0.00, 0.00, 0, 0, 0, 0, 0, 0
EKF3, 25077, 0.00, 0.00, 0.00, 0.00, 0.00, 0.00, 0, 0, 0, 0.00
EKF4, 25077, 0.00, 0.00, 0.00, 0.00, 0.00, 0.00, 0.00, 0, 0, 0, 0
RCIN, 25077, 1513, 1515, 1470, 1514, 968, 1235, 1934, 1094, 1514, 1514, 1514, 1514, 1514, 1514
RCOU, 25077, 1605, 1626, 1608, 1624, 0, 0, 0, 0
IMU, 25077, -0.006079286, -0.00153281, 0.001243711, -0.02049858, 0.3463761, -9.548735
IMU2, 25077, -0.00892194, -0.00784016, 0.008169125, 0.208454, 0.1706055, -9.765338
IMU, 25097, 0.006686505, 0.000827454, 0.001190511, -0.03248356, 0.1647124, -9.504698
IMU2, 25097, 0.01329294, -0.003458865, -0.005172672, 0.07663476, 0.02466178, -9.751973
IMU, 25116, -0.004804283, -0.0005906597, 0.0002693245, -0.004272491, 0.2901602, -9.609228
IMU2, 25116, -0.004604439, -0.009451643, -0.005828217, 0.1528038, 0.2137948, -9.99267
IMU, 25137, 0.001656739, -0.0004229024, 0.0003557783, 0.002372511, 0.2025028, -9.498118
IMU2, 25137, 0.005760269, 0.002366722, 0.0002726836, 0.1131787, 0.07999897, -9.761415
IMU, 25157, -0.003286721, 0.0009181201, -0.001601015, 0.003249578, 0.3173867, -9.558849
IMU2, 25157, -0.01134152, -0.006631207, -0.003247135, 0.195225, 0.1470168, -9.711604
MAG, 25174, -78, -207, -72, -54, -7, -3, 0, 0, 0
MAG2, 25174, -147, -187, -109, 1, -279, 120, 0, 0, 0
BARO, 25177, 0.256735, 100389.9, 25.22, -0.110481
CTUN, 25177, 526, 0, 644, 0, -0.96, 0.25, 0.00, 0.00, 0, -79
ATT, 25177, 0.00, -0.02, 0.00, 1.44, 111.12, 111.05, 0.00, 0.00
EKF1, 25178, 0.61, 0.75, 0.00, 0, 0, 0, 0, 0, 0, 0.00, 0.00, 0.00
EKF2, 25178, 50, 0, 0, 0.00, 0.00, 0, 0, 0, 0, 0, 0
EKF3, 25178, 0.00, 0.00, 0.00, 0.00, 0.00, 0.00, 0, 0, 0, 0.00
EKF4, 25178, 0.00, 0.00, 0.00, 0.00, 0.00, 0.00, 0.00, 0, 0, 0, 0
RCIN, 25178, 1513, 1515, 1498, 1514, 968, 1235, 1934, 1094, 1514, 1514, 1514, 1514, 1514, 1514
RCOU, 25178, 1620, 1638, 1616, 1639, 0, 0, 0, 0
IMU, 25178, 0.005264468, 0.001140781, -0.002358666, -0.02701607, 0.2253356, -9.566339
IMU2, 25178, 0.01559112, -0.006398417, -0.009882788, 0.116607, 0.09307778, -9.888063
IMU, 25197, -0.004420724, -2.317131E-05, 0.003278193, -0.007768657, 0.2427336, -9.484823
IMU2, 25197, -0.006454841, -0.003936619, 0.007505906, 0.1677239, 0.09788656, -9.848779
IMU, 25217, 0.002408102, 0.0007009953, 0.0009526191, -0.008199943, 0.2968896, -9.545551
IMU2, 25217, 0.002737679, -0.006521784, -0.0006363464, 0.2100492, 0.1026226, -9.790601
GPS, 1, 0, 0, 0, 99.99, -12.0730059, -77.0826488, -0.96, 89.20, 0.00, 0.00, 0, 25237
IMU, 25237, -0.0007007271, 0.0009145997, 0.0006196983, 0.001589783, 0.2619255, -9.516969
IMU2, 25237, 0.005568108, -0.005224496, -0.005969087, 0.1289861, 0.1027106, -9.837448
IMU, 25257, 0.00203706, -0.0001944602, -0.001645047, -0.01644623, 0.2548843, -9.554205
IMU2, 25257, 0.0006453618, -0.00223881, -0.002055005, 0.1620849, 0.105226, -9.848409
MAG, 25275, -79, -206, -72, -54, -7, -3, 0, 0, 0
MAG2, 25275, -147, -187, -108, 1, -279, 120, 0, 0, 0
BARO, 25278, 0.1966481, 100390.6, 25.24, -0.01862889
CTUN, 25278, 630, 0, 722, 0, -0.96, 0.19, 0.00, 0.00, 0, -78
ATT, 25278, 0.00, -0.02, 0.00, 1.43, 111.12, 111.05, 0.00, 0.00
EKF1, 25278, 0.61, 0.75, 0.00, 0, 0, 0, 0, 0, 0, 0.00, 0.00, 0.00
EKF2, 25278, 50, 0, 0, 0.00, 0.00, 0, 0, 0, 0, 0, 0
EKF3, 25278, 0.00, 0.00, 0.00, 0.00, 0.00, 0.00, 0, 0, 0, 0.00
EKF4, 25278, 0.00, 0.00, 0.00, 0.00, 0.00, 0.00, 0.00, 0, 0, 0, 0
RCIN, 25278, 1513, 1515, 1590, 1514, 968, 1235, 1934, 1094, 1514, 1514, 1514, 1514, 1514, 1514
RCOU, 25278, 1657, 1677, 1654, 1677, 0, 0, 0, 0
IMU, 25278, 0.003404137, 0.001503985, -0.003443562, 0.02665988, 0.231881, -9.59766
IMU2, 25278, 0.00928585, -0.005928144, -0.01250977, 0.1965021, 0.06264615, -9.844237
IMU, 25297, -0.00448288, -0.0004806407, 0.001489761, -0.02604437, 0.2474114, -9.516296
IMU2, 25297, 0.001538389, -0.004473027, 0.00235598, 0.1055444, 0.1398629, -9.850561
IMU, 25317, 0.0009975117, -0.001420278, 0.0006656321, -0.01876561, 0.2955076, -9.497286
IMU2, 25317, -0.003653659, -0.007350855, -0.0003797924, 0.1537474, 0.1630305, -9.869781
IMU, 25337, 0.003906509, 0.0003072172, -0.0008200947, 0.009600848, 0.2538748, -9.526431
IMU2, 25337, 0.004693437, -0.01243973, -0.002826894, 0.1556484, 0.1590464, -9.773531
IMU, 25358, 0.001436902, -0.00034355, -0.0005357293, -0.004141325, 0.2651098, -9.544825
IMU2, 25358, 0.01013325, -0.01175227, -0.006720448, 0.1490002, 0.1557415, -9.812785
MAG, 25374, -81, -205, -71, -54, -7, -3, 0, 0, 0
MAG2, 25374, -147, -188, -108, 1, -279, 120, 0, 0, 0
BARO, 25377, 0.207573, 100390.4, 25.25, -0.01738508
CTUN, 25377, 868, 0, 901, 0, -0.97, 0.20, 0.00, 0.00, 0, -78
ATT, 25377, 0.00, -0.01, 0.00, 1.41, 111.12, 111.04, 0.00, 0.01
EKF1, 25377, 0.61, 0.75, 0.00, 0, 0, 0, 0, 0, 0, 0.00, 0.00, 0.00
EKF2, 25377, 50, 0, 0, 0.00, 0.00, 0, 0, 0, 0, 0, 0
EKF3, 25377, 0.00, 0.00, 0.00, 0.00, 0.00, 0.00, 0, 0, 0, 0.00
EKF4, 25377, 0.00, 0.00, 0.00, 0.00, 0.00, 0.00, 0.00, 0, 0, 0, 0
RCIN, 25377, 1513, 1515, 1812, 1514, 968, 1235, 1934, 1094, 1514, 1514, 1514, 1514, 1514, 1514
RCOU, 25377, 1794, 1817, 1794, 1817, 0, 0, 0, 0
IMU, 25377, -0.001004979, 0.001093708, 0.0004397649, -0.05423503, 0.1675429, -9.54173
IMU2, 25377, 0.001774039, -0.0004060715, -0.002609365, 0.1039879, 0.03778636, -9.776633
IMU, 25397, 0.001968756, 0.0008995533, -0.001412078, -0.05946436, 0.2562907, -9.486181
IMU2, 25397, -0.002102353, -0.001320828, -0.006333812, 0.09663057, 0.1146704, -9.779227
IMU, 25417, 0.0002701581, 0.00154642, -0.0005069934, -0.009261228, 0.2145787, -9.496096
IMU2, 25417, 0.005200492, -0.004384872, -0.001619083, 0.1238654, 0.1188012, -9.726808
GPS, 1, 0, 0, 0, 99.99, -12.0730059, -77.0826488, -0.98, 89.20, 0.00, 0.00, 0, 25437
IMU, 25437, -0.0002227668, 0.001192044, 0.001428423, -0.01441187, 0.2361325, -9.555702
IMU2, 25437, 0.001202947, -0.002445679, -0.001489088, 0.1090086, 0.06837773, -9.803249
IMU, 25457, 0.001512455, 0.001808543, 0.001128724, 0.0136807, 0.2527605, -9.511632
IMU2, 25457, 0.01211328, -0.002135873, -0.001907257, 0.2183342, 0.1169226, -9.893089
MAG, 25474, -81, -205, -72, -54, -7, -3, 0, 0, 0
MAG2, 25475, -151, -194, -119, 1, -279, 120, 0, 0, 0
BARO, 25477, 0.207573, 100390.4, 25.26, -0.1084429
CTUN, 25477, 944, 0, 958, 0, -0.98, 0.20, 0.00, 0.00, 0, -77
ATT, 25477, 0.00, -0.01, 0.00, 1.40, 111.12, 111.04, 0.00, 0.01
EKF1, 25477, 0.61, 0.75, 0.00, 0, 0, 0, 0, 0, 0, 0.00, 0.00, 0.00
EKF2, 25477, 50, 0, 0, 0.00, 0.00, 0, 0, 0, 0, 0, 0
EKF3, 25477, 0.00, 0.00, 0.00, 0.00, 0.00, 0.00, 0, 0, 0, 0.00
EKF4, 25477, 0.00, 0.00, 0.00, 0.00, 0.00, 0.00, 0.00, 0, 0, 0, 0
RCIN, 25477, 1513, 1515, 1882, 1514, 968, 1235, 1934, 1094, 1514, 1514, 1514, 1514, 1514, 1514
RCOU, 25478, 1833, 1856, 1833, 1856, 0, 0, 0, 0
IMU, 25478, -0.0005891994, 0.0002405085, 0.0008658627, 0.01186356, 0.2587084, -9.568022
IMU2, 25478, -0.004201469, -0.002411243, -0.003183909, 0.1647192, 0.1192493, -9.886494
IMU, 25497, 0.00112153, 0.0005881228, -0.001925116, -0.006239735, 0.2262533, -9.526237
IMU2, 25497, -0.00502304, 0.00669948, -0.005338303, 0.1393515, 0.1137508, -9.846249
IMU, 25517, 0.001816561, -5.959719E-05, -0.002473994, -0.0157746, 0.2314116, -9.492041
IMU2, 25517, -0.008312886, 0.001184732, -0.004281081, 0.1899252, 0.1021979, -9.81384
IMU, 25538, 0.001739832, 0.0002286993, -0.003024711, -0.02499511, 0.2588291, -9.559382
IMU2, 25538, 0.001946944, -0.01484448, -0.007151702, 0.1152529, 0.1379989, -9.820069
IMU, 25557, -0.0003348943, 0.0006122515, -0.001259523, -0.01279609, 0.2422638, -9.571402
IMU2, 25557, 0.001199815, 0.001067817, -0.0002582981, 0.1170151, 0.02947032, -9.81897
MAG, 25575, -81, -205, -71, -54, -7, -3, 0, 0, 0
MAG2, 25575, -146, -186, -104, 1, -279, 120, 0, 0, 0
BARO, 25577, 0.2021105, 100390.5, 25.26, -0.1235485
CTUN, 25577, 964, 0, 973, 0, -0.9899999, 0.20, 0.00, 0.00, 0, -77
ATT, 25577, 0.00, -0.02, 0.00, 1.40, 111.12, 111.04, 0.00, 0.01
EKF1, 25577, 0.61, 0.75, 0.00, 0, 0, 0, 0, 0, 0, 0.00, 0.00, 0.00
EKF2, 25577, 50, 0, 0, 0.00, 0.00, 0, 0, 0, 0, 0, 0
EKF3, 25577, 0.00, 0.00, 0.00, 0.00, 0.00, 0.00, 0, 0, 0, 0.00
EKF4, 25577, 0.00, 0.00, 0.00, 0.00, 0.00, 0.00, 0.00, 0, 0, 0, 0
RCIN, 25577, 1513, 1515, 1901, 1513, 968, 1235, 1934, 1094, 1514, 1514, 1514, 1514, 1514, 1514
RCOU, 25577, 1838, 1861, 1838, 1861, 0, 0, 0, 0
IMU, 25577, -0.0005814247, -0.0004598945, 0.0006942861, -0.01239733, 0.2373219, -9.570616
IMU2, 25577, 0.005166011, -0.009981647, 0.002519646, 0.2086971, 0.06594086, -9.8006
IMU, 25597, 0.0008446239, 0.0003377236, -0.001686163, -0.0003606454, 0.234563, -9.548544
IMU2, 25597, -0.007408265, 0.006635841, 8.323195E-05, 0.1804053, 0.1970842, -9.784499
IMU, 25617, 0.001956517, 0.001372531, -0.002180094, 0.001189709, 0.2448698, -9.572217
IMU2, 25617, 0.01233266, -0.01253366, -0.003076573, 0.1248084, 0.1235824, -9.821362
GPS, 1, 0, 0, 0, 99.99, -12.0730059, -77.0826488, -0.99, 89.20, 0.00, 0.00, 0, 25637
IMU, 25638, 0.002599459, 0.0005780049, -0.002656904, 0.01536318, 0.2645707, -9.504703
IMU2, 25638, 0.004525736, -0.01520884, -0.001602811, 0.1532817, 0.1707177, -9.816385
IMU, 25657, 0.001677504, 0.0003547296, -0.001493203, -0.01881825, 0.2838157, -9.533373
IMU2, 25657, 0.003072595, -0.01060275, -0.005277341, 0.144807, 0.1221855, -9.809359
MAG, 25674, -79, -205, -71, -54, -7, -3, 0, 0, 0
MAG2, 25674, -147, -185, -105, 1, -279, 120, 0, 0, 0
BARO, 25677, 0.13383, 100391.3, 25.27, -0.08294377
CTUN, 25677, 1000, 0, 1000, 0, -1, 0.13, 0.00, 0.00, 0, -76
ATT, 25677, 0.00, -0.02, 0.00, 1.38, 111.12, 111.04, 0.00, 0.00
EKF1, 25677, 0.61, 0.75, 0.00, 0, 0, 0, 0, 0, 0, 0.00, 0.00, 0.00
EKF2, 25677, 50, 0, 0, 0.00, 0.00, 0, 0, 0, 0, 0, 0
EKF3, 25677, 0.00, 0.00, 0.00, 0.00, 0.00, 0.00, 0, 0, 0, 0.00
EKF4, 25677, 0.00, 0.00, 0.00, 0.00, 0.00, 0.00, 0.00, 0, 0, 0, 0
RCIN, 25677, 1513, 1515, 1934, 1513, 968, 1235, 1934, 1094, 1514, 1514, 1514, 1514, 1514, 1514
RCOU, 25678, 1850, 1875, 1850, 1875, 0, 0, 0, 0
IMU, 25678, 0.000226941, 0.0008947961, -0.0003723614, -0.005875936, 0.2932429, -9.558103
IMU2, 25678, 0.001460934, -0.001994051, 0.001692587, 0.2436056, 0.131385, -9.861919
IMU, 25697, -0.0004587248, 0.0007423125, 0.001628832, -0.02700127, 0.2634401, -9.536019
IMU2, 25697, 0.009006923, 0.001199156, -0.0008066554, 0.1796023, 0.1238081, -9.789709
